code,category,date,time_start,time_end,location,lat,lng
1,自行車竊盜,2015-01-01,16,18,臺北市大安區住安里四維路124巷1~30號,25.0318503,121.5478463
2,自行車竊盜,2015-01-04,08,10,臺北市大安區敦煌里仁愛路4段266巷1~30號,25.0369621,121.5528374
3,自行車竊盜,2015-01-06,14,16,臺北市萬華區國興路1~30號,25.0236613,121.5086567
4,自行車竊盜,2015-01-08,08,10,臺北市北投區清江里三合街2段481~510號,25.1262794,121.5013501
5,自行車竊盜,2015-01-08,16,18,臺北市松山區延壽街391~420號,25.0565036,121.5575543
6,自行車竊盜,2015-01-09,06,08,臺北市南港區三重里南港路1段(南港展覽館5號,25.0566019,121.6181159
7,自行車竊盜,2015-01-09,14,16,臺北市北投區大同里光明路1~30號,25.131841,121.498633
8,自行車竊盜,2015-01-09,14,16,臺北市內湖區金湖里康寧路3段31~60號,25.0727962,121.6075258
9,自行車竊盜,2015-01-10,04,06,臺北市內湖區康寧路3段31~60號,25.0727962,121.6075258
10,自行車竊盜,2015-01-10,12,14,臺北市松山區三民路121~150號,25.058182,121.5633224
11,自行車竊盜,2015-01-10,16,18,臺北市萬華區西昌街29巷1~30號,25.0427626,121.5008272
12,自行車竊盜,2015-01-11,06,08,臺北市南港區東明里東明街61~90號,25.0550865,121.6029915
13,自行車竊盜,2015-01-11,06,08,臺北市南港區東明里東明街61~90號,25.0550865,121.6029915
14,自行車竊盜,2015-01-11,06,08,臺北市南港區東明里東明街61~90號,25.0550865,121.6029915
15,自行車竊盜,2015-01-11,06,08,臺北市南港區東明里東明街61~90號,25.0550865,121.6029915
16,自行車竊盜,2015-01-11,06,08,臺北市南港區東明里東明街61~90號,25.0550865,121.6029915
17,自行車竊盜,2015-01-11,08,10,臺北市萬華區萬大路387巷1~30號,25.0223743,121.4996
18,自行車竊盜,2015-01-11,14,16,臺北市北投區大同里光明路1~30號,25.131841,121.498633
19,自行車竊盜,2015-01-13,10,12,臺北市中正區忠孝東路1段31~60號,25.0439108,121.5343687
20,自行車竊盜,2015-01-15,06,08,臺北市信義區中行里福德街221巷4弄1~30號,25.0322069,121.5884161
21,自行車竊盜,2015-01-16,06,08,臺北市松山區撫遠街361~390號,25.0627044,121.5661473
22,自行車竊盜,2015-01-17,16,18,臺北市大安區仁慈里仁愛路4段1~30號,25.0382468,121.5440818
23,自行車竊盜,2015-01-18,08,10,臺北市萬華區西園路2段91~120號,25.0293413,121.4957544
24,自行車竊盜,2015-01-19,08,10,臺北市信義區大道里忠孝東路5段781~810號,25.0438426,121.5813941
25,自行車竊盜,2015-01-20,10,12,臺北市信義區西村里松壽路1~30號,25.0367277,121.5627749
26,自行車竊盜,2015-01-21,10,12,臺北市內湖區南湖里東湖捷運站,25.0671748,121.6116127
27,自行車竊盜,2015-01-21,12,14,臺北市內湖區港墘里內湖路1段661~690號,25.080287,121.5738534
28,自行車竊盜,2015-01-22,00,02,臺北市北投區一德里中央北路4段577巷27弄1~30號,25.1265373,121.4678015
29,自行車竊盜,2015-01-23,18,20,臺北市南港區東明里南港路2段1~30號,25.053637,121.6009302
30,自行車竊盜,2015-01-23,18,20,臺北市南港區東明里南港路2段(與興華路口萊爾富超商前),25.0534001,121.6000783
31,自行車竊盜,2015-01-23,20,22,臺北市北投區石牌里自強街91~120號,25.110793,121.514928
32,自行車竊盜,2015-01-23,20,22,臺北市北投區東華里東華街2段301~330號,25.1208763,121.5062194
33,自行車竊盜,2015-01-23,22,24,臺北市松山區三民路62巷1~30號,25.0546971,121.564154
34,自行車竊盜,2015-01-24,22,24,臺北市中正區黎明里市民大道1段(台北捷運M1出口處),25.0447598,121.537509
35,自行車竊盜,2015-01-25,10,12,臺北市中正區東門里愛國東路(上(靠國家戲劇院人行道自行車停車格)),25.0352575,121.5182302
36,自行車竊盜,2015-01-25,12,14,臺北市南港區鴻福里成福路31~60號,25.0446175,121.58685
37,自行車竊盜,2015-01-25,14,16,臺北市萬華區西園路2段211~240號,25.0293413,121.4957544
38,自行車竊盜,2015-01-26,10,12,臺北市信義區忠孝東路5段(市府捷運站4號,25.0411442,121.5663284
39,自行車竊盜,2015-01-26,14,16,臺北市萬華區寶興街121~150號,25.0252155,121.4948481
40,自行車竊盜,2015-01-27,16,18,臺北市北投區桃源里中央北路3段53巷1~30號,25.1378887,121.4855437
41,自行車竊盜,2015-01-28,04,06,臺北市文山區興邦里興隆路2段181~210號,25.0007968,121.5492409
42,自行車竊盜,2015-01-28,14,16,臺北市大安區信義路敦化南路口,25.0332705,121.5529574
43,自行車竊盜,2015-01-29,16,18,臺北市大安區敦煌里安和路1段61~90號,25.0374557,121.5517838
44,自行車竊盜,2015-01-30,10,12,臺北市萬華區西園路2段241~270號,25.0266037,121.4936088
45,自行車竊盜,2015-01-30,18,20,臺北市北投區一德里大度路3段296巷31~60號,25.124188,121.4666667
46,自行車竊盜,2015-01-31,16,18,臺北市中山區松江路361~390號,25.0636359,121.533545
47,自行車竊盜,2015-02-01,18,20,臺北市松山區慶城街1~30號,25.0528029,121.5445811
48,自行車竊盜,2015-02-04,20,22,臺北市大同區星明里寧夏路1~30號,25.0543191,121.5149537
49,自行車竊盜,2015-02-05,06,08,臺北市北投區關渡里關渡路91~120號,25.118398,121.4688739
50,自行車竊盜,2015-02-05,18,20,臺北市北投區榮光里致遠一路2段31~60號,25.1113981,121.5139789
51,自行車竊盜,2015-02-05,20,22,臺北市信義區長春里虎林街82巷31~60號,25.0434399,121.5759526
52,自行車竊盜,2015-02-07,12,14,臺北市士林區中山北路5段61~90號,25.0836168,121.5255946
53,自行車竊盜,2015-02-10,12,14,臺北市信義區安康里信義路5段(象山捷運站1號,25.0328146,121.5700821
54,自行車竊盜,2015-02-12,08,10,臺北市文山區景慶里景福街223巷(口),24.994442,121.538167
55,自行車竊盜,2015-02-15,10,12,臺北市北投區開明里中和街241~270號,25.139521,121.501124
56,自行車竊盜,2015-02-15,12,14,臺北市松山區南京東路5段211~240號,25.05189,121.5578
57,自行車竊盜,2015-02-16,18,20,臺北市大安區敦煌里仁愛路4段266巷,25.0369798,121.5529149
58,自行車竊盜,2015-02-17,02,04,臺北市文山區興得里興隆路3段211~240號,24.994676,121.559772
59,自行車竊盜,2015-02-17,10,12,臺北市大安區古莊里羅斯福路3段91~120號,25.022693,121.526267
60,自行車竊盜,2015-02-18,08,10,臺北市內湖區瑞光里瑞光路112巷58弄,25.0712341,121.5798936
61,自行車竊盜,2015-02-18,22,24,臺北市萬華區西門站,25.0415168,121.5077921
62,自行車竊盜,2015-02-19,10,12,臺北市信義區安康里虎林街164巷58弄1~30號,25.0381194,121.5747779
63,自行車竊盜,2015-02-20,20,22,臺北市北投區榮光里石牌路1段181~210號,25.114971,121.5145744
64,自行車竊盜,2015-02-22,14,16,臺北市中山區圓山捷運站2號,25.0696122,121.5201843
65,自行車竊盜,2015-02-22,14,16,臺北市大安區辛亥路1段61~90號,25.018293,121.528092
66,自行車竊盜,2015-02-25,04,06,臺北市大安區黎孝里和平東路3段301~330號,25.0217579,121.555645
67,自行車竊盜,2015-02-25,10,12,臺北市信義區基隆路2段31~60號,25.0282622,121.5569803
68,自行車竊盜,2015-02-26,00,02,臺北市文山區樟腳里木新路3段95巷31~60號,24.9812804,121.5630862
69,自行車竊盜,2015-02-28,18,20,臺北市南港區新富里忠孝東路7段631~660號,25.053385,121.615939
70,自行車竊盜,2015-03-01,00,02,臺北市大安區光信里5鄰光復南路421~450號,25.035296,121.557886
71,自行車竊盜,2015-03-06,10,12,臺北市文山區景華里三福街1~30號,24.9961299,121.541519
72,自行車竊盜,2015-03-06,14,16,臺北市中山區錦州街331~360號,25.0603641,121.5389614
73,自行車竊盜,2015-03-07,12,14,臺北市松山區南京東路3段331~360號,25.0520702,121.547338
74,自行車竊盜,2015-03-08,08,10,臺北市大安區法治里通化街181~210號,25.0394978,121.5628887
75,自行車竊盜,2015-03-08,22,24,臺北市南港區東明里(家樂福前之機車停車格),25.0532391,121.5926833
76,自行車竊盜,2015-03-14,14,16,臺北市南港區合成里忠孝東路6段451~480號,25.0506282,121.5937913
77,自行車竊盜,2015-03-15,06,08,臺北市大安區古莊里羅斯福路2段101巷1~30號,25.024646,121.5258427
78,自行車竊盜,2015-03-15,08,10,臺北市大安區和平東路1段151~180號,25.0265798,121.5311573
79,自行車竊盜,2015-03-16,20,22,臺北市大安區學府里羅斯福路4段1~30號,25.0173405,121.5397518
80,自行車竊盜,2015-03-17,12,14,臺北市大安區華聲里市民大路4段211~240號,25.0435208,121.556267
81,自行車竊盜,2015-03-18,06,08,臺北市北投區清江里三合街2段481~510號,25.1262794,121.5013501
82,自行車竊盜,2015-03-18,10,12,臺北市松山區松河街91~120號,25.0509374,121.5746005
83,自行車竊盜,2015-03-18,16,18,臺北市大安區福住里新生南路2段31~60號,25.0305591,121.5338566
84,自行車竊盜,2015-03-19,06,08,臺北市南港區新富里研究院路1段31~60號,25.0548961,121.6168525
85,自行車竊盜,2015-03-19,12,14,臺北市士林區中山北路5段61~90號,25.0836168,121.5255946
86,自行車竊盜,2015-03-20,12,14,臺北市信義區忠孝東路5段421~450號,25.0409267,121.5754534
87,自行車竊盜,2015-03-21,12,14,臺北市大安區黎和里和平東路3段391~420號,25.0196996,121.5575849
88,自行車竊盜,2015-03-22,18,20,臺北市大安區古莊里羅斯福路2段101巷31~60號,25.024804,121.526013
89,自行車竊盜,2015-03-23,10,12,臺北市大安區敦安里敦化南路1段295巷31~60號,25.035761,121.5493317
90,自行車竊盜,2015-03-27,14,16,臺北市中正區建國里博愛路121~150號,25.0403293,121.511411
91,自行車竊盜,2015-03-29,10,12,臺北市中正區水源里羅斯福路4段52巷16弄(口),25.0142437,121.5341721
92,自行車竊盜,2015-03-29,14,16,臺北市中正區文盛里汀州路3段151~180號,25.0158782,121.5313528
93,自行車竊盜,2015-03-29,16,18,臺北市南港區東新里興南街64巷4弄1~30號,25.0558703,121.6016597
94,自行車竊盜,2015-03-31,10,12,臺北市萬華區艋舺大道181~210號,25.0278231,121.4903396
95,自行車竊盜,2015-04-02,08,10,臺北市大安區古莊里浦城街6巷1~30號,25.0240919,121.5267202
96,自行車竊盜,2015-04-05,18,20,臺北市中山區敬業三路121~150號,25.0817519,121.5556984
97,自行車竊盜,2015-04-05,22,24,臺北市大同區南芳里延平北路2段241~270號,25.0620649,121.511392
98,自行車竊盜,2015-04-05,22,24,臺北市內湖區湖元里舊宗路2段(內湖運動公園),25.067763,121.573841
99,自行車竊盜,2015-04-07,08,10,臺北市大安區龍泉里師大路1~30號,25.026164,121.5285658
100,自行車竊盜,2015-04-08,00,02,臺北市大安區敦安里8鄰安和路1段78巷1~30號,25.0349533,121.5514851
101,自行車竊盜,2015-04-09,20,22,臺北市北投區榮光里石牌路1段181~210號,25.114971,121.5145744
102,自行車竊盜,2015-04-10,04,06,臺北市文山區萬祥里興隆路1段102巷1~30號,25.0028986,121.5412664
103,自行車竊盜,2015-04-10,08,10,臺北市大同區鄰江里酒泉街228巷,25.0721406,121.509962
104,自行車竊盜,2015-04-12,02,04,臺北市大安區昌隆里忠孝東路3段217巷5弄1~30號,25.0432508,121.539589
105,自行車竊盜,2015-04-12,10,12,臺北市文山區興邦里興隆路2段241~270號,25.0019609,121.551362
106,自行車竊盜,2015-04-14,10,12,臺北市北投區福興里自強街5巷31~60號,25.1106538,121.5119371
107,自行車竊盜,2015-04-15,06,08,臺北市大同區建泰里南京西路91~120號,25.0533887,121.5182387
108,自行車竊盜,2015-04-15,08,10,臺北市萬華區東園街28巷1~30號,25.026999,121.49555
109,自行車竊盜,2015-04-15,10,12,臺北市大安區福住里永康街31~60號,25.0310294,121.5295852
110,自行車竊盜,2015-04-15,14,16,臺北市中山區農安街227巷31~60號,25.0664327,121.5340049
111,自行車竊盜,2015-04-17,10,12,臺北市士林區福德里福德路1~30號,25.093535,121.52623
112,自行車竊盜,2015-04-20,00,02,臺北市文山區興業里興隆路2段220巷31~60號,25.0005075,121.5522314
113,自行車竊盜,2015-04-21,10,12,臺北市大安區基隆路3段156巷(台大校園自行車停車場),25.0159585,121.5424917
114,自行車竊盜,2015-04-21,16,18,臺北市文山區景東里景華街104巷(口),24.9957732,121.5467652
115,自行車竊盜,2015-04-26,04,06,臺北市大同區雙連里重慶北路(歸綏街),25.0582125,121.513712
116,自行車竊盜,2015-04-27,14,16,臺北市大安區龍門里建國南路2段241~270號,25.0254926,121.5379898
117,自行車竊盜,2015-04-27,14,16,臺北市南港區聯成里忠孝東路6段301~330號,25.0499589,121.5910753
118,自行車竊盜,2015-04-28,10,12,臺北市信義區永吉路331~360號,25.0456986,121.575805
119,自行車竊盜,2015-05-01,02,04,臺北市大安區德安里四維路76巷,25.0342586,121.5471068
120,自行車竊盜,2015-05-01,16,18,臺北市大安區福住里新生南路2段31~60號,25.0305591,121.5338566
121,自行車竊盜,2015-05-01,16,18,臺北市大同區北門站,25.049285,121.510278
122,自行車竊盜,2015-05-01,22,24,臺北市信義區六合里信義路5段150巷271~300號,25.0275394,121.5689667
123,自行車竊盜,2015-05-03,12,14,臺北市松山區撫遠街391~420號,25.0651222,121.5657775
124,自行車竊盜,2015-05-03,16,18,臺北市中正區新營里捷運古亭站七號,25.0265508,121.5228141
125,自行車竊盜,2015-05-03,20,22,臺北市中正區黎明里市民大道,25.0485113,121.5175771
126,自行車竊盜,2015-05-07,18,20,臺北市文山區樟文里忠順街1段1~30號,24.9834355,121.5549737
127,自行車竊盜,2015-05-07,22,24,臺北市文山區樟樹里木新路3段151~180號,24.9817228,121.5613393
128,自行車竊盜,2015-05-09,14,16,臺北市士林區蘭雅里德行東路109巷61~90號,25.109478,121.5284188
129,自行車竊盜,2015-05-09,20,22,臺北市中正區臺大醫院捷運站2號,25.0417873,121.5160523
130,自行車竊盜,2015-05-10,12,14,臺北市士林區義信里中山北路5段61~90號,25.0836168,121.5255946
131,自行車竊盜,2015-05-10,14,16,臺北市信義區松友里信義路6段72巷2弄31~60號,25.035014,121.5768185
132,自行車竊盜,2015-05-10,22,24,臺北市萬華區青年路106巷1~30號,25.0226568,121.5022132
133,自行車竊盜,2015-05-11,06,08,臺北市文山區興邦里興隆路2段181~210號,25.0007968,121.5492409
134,自行車竊盜,2015-05-13,12,14,臺北市萬華區貴陽街151~180號,25.0402787,121.5009376
135,自行車竊盜,2015-05-16,22,24,臺北市大安區龍門里新生南路2段1~30號,25.0310609,121.535552
136,自行車竊盜,2015-05-17,16,18,臺北市中正區文祥里金山南路1段101巷1~30號,25.0335191,121.5273677
137,自行車竊盜,2015-05-17,16,18,臺北市大同區大龍街1~30號,25.063164,121.5160433
138,自行車竊盜,2015-05-18,16,18,臺北市信義區安康里松德路(興雅國中校門口左側),25.035644,121.5722586
139,自行車竊盜,2015-05-19,18,20,臺北市士林區義信里中山北路5段61~90號,25.0836168,121.5255946
140,自行車竊盜,2015-05-20,08,10,臺北市大安區龍圖里信義路3段181~210號,25.0332971,121.5424362
141,自行車竊盜,2015-05-21,12,14,臺北市中正區中正紀念堂,25.0346119,121.521781
142,自行車竊盜,2015-05-26,08,10,臺北市中山區撫順公園,25.0644457,121.5220051
143,自行車竊盜,2015-05-27,16,18,臺北市內湖區港墘里內湖路1段629巷31~60號,25.080287,121.5738534
144,自行車竊盜,2015-05-28,14,16,臺北市士林區中山北路5段61~90號,25.0836168,121.5255946
145,自行車竊盜,2015-05-29,00,02,臺北市中正區黎明里武昌街一段1~30號,25.044007,121.512365
146,自行車竊盜,2015-05-29,04,06,臺北市文山區萬興里指南路2段1~30號,24.9877071,121.5749392
147,自行車竊盜,2015-05-29,06,08,臺北市文山區木柵里木柵路3段85巷14弄1~30號,24.989619,121.567001
148,自行車竊盜,2015-05-30,10,12,臺北市松山區民生東路5段36巷6弄1~30號,25.0577413,121.5598146
149,自行車竊盜,2015-05-30,16,18,臺北市北投區吉利里致遠二路61~90號,25.1124156,121.5149198
150,自行車竊盜,2015-06-01,00,02,臺北市大同區建泰里南京西路18巷1~30號,25.0506782,121.5200726
151,自行車竊盜,2015-06-01,04,06,臺北市大安區芳和里樂業街94巷1~30號,25.021187,121.5512354
152,自行車竊盜,2015-06-02,14,16,臺北市北投區泉源里東昇路91~120號,25.15627,121.529227
153,自行車竊盜,2015-06-03,10,12,臺北市大安區學府里16鄰羅斯福路4段1~30號,25.0157601,121.5329959
154,自行車竊盜,2015-06-04,06,08,臺北市北投區立農里立農街1段279巷2弄1~30號,25.1193883,121.5060407
155,自行車竊盜,2015-06-04,14,16,臺北市信義區廣居里忠孝東路5段451~480號,25.0411038,121.5762524
156,自行車竊盜,2015-06-04,22,24,臺北市中正區幸福里忠孝東路1段84巷,25.0455047,121.521878
157,自行車竊盜,2015-06-05,04,06,臺北市大安區光明里杭州南路2段9巷1~30號,25.0343643,121.5239852
158,自行車竊盜,2015-06-06,02,04,臺北市大安區錦安里7鄰金山南路2段185巷1~30號,25.028454,121.526888
159,自行車竊盜,2015-06-07,12,14,臺北市北投區關渡里知行路301~330號,25.1220973,121.4671994
160,自行車竊盜,2015-06-09,00,02,臺北市士林區社園里延平北路6段151~180號,25.0892786,121.507508
161,自行車竊盜,2015-06-09,06,08,臺北市內湖區康樂街136巷29弄31~60號,25.072837,121.617992
162,自行車竊盜,2015-06-09,16,18,臺北市信義區松智路(與松廉路口),25.0340054,121.5654243
163,自行車竊盜,2015-06-09,20,22,臺北市文山區明義里木柵路2段61~90號,24.9888665,121.5605126
164,自行車竊盜,2015-06-10,02,04,臺北市北投區福興里自強街31巷31~60號,25.1112364,121.5124629
165,自行車竊盜,2015-06-10,02,04,臺北市北投區福興里自強街31巷31~60號,25.1112364,121.5124629
166,自行車竊盜,2015-06-13,00,02,臺北市南港區九如里研究院路2段211~240號,25.0364568,121.6173835
167,自行車竊盜,2015-06-13,04,06,臺北市松山區南京東路5段291巷47弄,25.0536492,121.5669175
168,自行車竊盜,2015-06-13,12,14,臺北市中山區新生北路3段31~60號,25.0646869,121.5280576
169,自行車竊盜,2015-06-13,12,14,臺北市中山區新生北路3段31~60號,25.0646869,121.5280576
170,自行車竊盜,2015-06-13,14,16,臺北市北投區榮華里東華街1段48巷1~30號,25.1087888,121.520117
171,自行車竊盜,2015-06-13,16,18,臺北市中正區東門里信義路1段1~30號,25.033623,121.5439372
172,自行車竊盜,2015-06-14,00,02,臺北市文山區景東里景華街82巷1~30號,24.9950752,121.5453899
173,自行車竊盜,2015-06-15,16,18,臺北市大安區敦安里6鄰仁愛路4段121~150號,25.037354,121.552164
174,自行車竊盜,2015-06-16,22,24,臺北市大安區龍泉里師大路1~30號,25.026164,121.5285658
175,自行車竊盜,2015-06-19,04,06,臺北市內湖區民權東路6段296巷31~60號,25.072064,121.6063903
176,自行車竊盜,2015-06-19,04,06,臺北市中山區松江路301~330號,25.0611915,121.5334002
177,自行車竊盜,2015-06-22,08,10,臺北市南港區合成里忠孝東路6段1~30號,25.045631,121.5827353
178,自行車竊盜,2015-06-23,04,06,臺北市大同區環河北路2段1~30號,25.0641035,121.5088539
179,自行車竊盜,2015-06-23,08,10,臺北市南港區昆陽捷運站腳踏車停車場,25.050735,121.594485
180,自行車竊盜,2015-06-23,08,10,臺北市大安區和平東路3段181~210號,25.023958,121.55333
181,自行車竊盜,2015-06-23,08,10,臺北市南港區合成里(昆陽捷運站旁停車場),25.050735,121.594485
182,自行車竊盜,2015-06-25,06,08,臺北市信義區興雅里永吉路30巷121~150號,25.0429464,121.5688672
183,自行車竊盜,2015-06-25,14,16,臺北市信義區興雅里松高路1~30號,25.039745,121.5642046
184,自行車竊盜,2015-06-29,20,22,臺北市北投區吉利里西安街1段(石牌國中側門旁人行道~竊腳踏車),25.1158345,121.5135413
185,自行車竊盜,2015-06-30,14,16,臺北市大同區玉泉里鄭州路121~150號,25.0503611,121.5109208
186,自行車竊盜,2015-07-01,00,02,臺北市中正區文盛里羅斯福路4段1~30號,25.0166195,121.5348052
187,自行車竊盜,2015-07-01,20,22,臺北市松山區南京東路5段(三民路捷運三民南京站),25.051429,121.563858
188,自行車竊盜,2015-07-02,18,20,臺北市中正區三愛里信義路2段241~270號,25.0333821,121.5323392
189,自行車竊盜,2015-07-02,18,20,臺北市文山區樟文里辛亥路7段69巷1~30號,24.9826284,121.5542226
190,自行車竊盜,2015-07-03,20,22,臺北市信義區興雅里忠孝東路5段1~30號,25.0414099,121.5650519
191,自行車竊盜,2015-07-04,14,16,臺北市中山區天祥路1~30號,25.0605808,121.521107
192,自行車竊盜,2015-07-05,10,12,臺北市大安區學府里羅斯福路4段1~30號,25.0173405,121.5397518
193,自行車竊盜,2015-07-05,16,18,臺北市信義區永春里忠孝東路5段(後山埤捷運站1號,25.0411245,121.5766852
194,自行車竊盜,2015-07-06,14,16,臺北市中山區中山北路2段91~120號,25.059308,121.523262
195,自行車竊盜,2015-07-07,12,14,臺北市大安區新龍里建國南路2段121~150號,25.029612,121.53832
196,自行車竊盜,2015-07-07,16,18,臺北市萬華區中華路2段504巷1~30號,25.0250933,121.5076596
197,自行車竊盜,2015-07-08,12,14,臺北市文山區萬隆里萬隆街61~90號,25.0004769,121.5366
198,自行車竊盜,2015-07-10,10,12,臺北市松山區光復北路61~90號,25.0485892,121.5576731
199,自行車竊盜,2015-07-12,14,16,臺北市北投區文林里文林北路241~270號,25.1088476,121.5129882
200,自行車竊盜,2015-07-12,18,20,臺北市北投區文林里文林北路241~270號,25.1088476,121.5129882
201,自行車竊盜,2015-07-13,10,12,臺北市松山區新東街60巷1~30號,25.0620789,121.5652586
202,自行車竊盜,2015-07-14,12,14,臺北市北投區中央里大興街24巷6弄1~30號,25.1290223,121.4987736
203,自行車竊盜,2015-07-14,18,20,臺北市中山區劍南路捷運站自行車停放處,25.084863,121.5555961
204,自行車竊盜,2015-07-14,22,24,臺北市北投區石牌里自強街120巷15弄(口),25.1109124,121.514577
205,自行車竊盜,2015-07-15,16,18,臺北市大同區國慶里民族西路252(大同公園)巷,25.0678862,121.5121462
206,自行車竊盜,2015-07-16,16,18,臺北市文山區興泰里15鄰辛亥路4段130巷,25.0050621,121.5564872
207,自行車竊盜,2015-07-18,18,20,臺北市南港區中南里忠孝東路7段361~390號,25.0518609,121.6045075
208,自行車竊盜,2015-07-20,22,24,臺北市中山區建國南路1段1~30號,25.0456651,121.5369734
209,自行車竊盜,2015-07-22,10,12,臺北市北投區永明里立農街2段331~360號,25.1189495,121.5182159
210,自行車竊盜,2015-07-26,12,14,臺北市中正區新營里羅斯福路1段1~30號,25.0344194,121.5173157
211,自行車竊盜,2015-07-27,08,10,臺北市南港區成福里成福路241~270號,25.0394055,121.5897889
212,自行車竊盜,2015-07-27,20,22,臺北市大安區古莊里浦城街1~30號,25.0246528,121.5281006
213,自行車竊盜,2015-07-28,18,20,臺北市士林區義信里中山北路5段61~90號,25.0836168,121.5255946
214,自行車竊盜,2015-08-01,12,14,臺北市文山區興福里13鄰興隆路2段22巷8弄1~30號,24.998005,121.545432
215,自行車竊盜,2015-08-02,10,12,臺北市中山區民族東路181~210號,25.0681591,121.5410576
216,自行車竊盜,2015-08-03,00,02,臺北市信義區長春里虎林街82巷1~30號,25.043422,121.577014
217,自行車竊盜,2015-08-03,14,16,臺北市文山區景華里三福街1~30號,24.9961299,121.541519
218,自行車竊盜,2015-08-04,06,08,臺北市北投區榮光里西安街1段(石牌捷運站2號,25.1144046,121.515609
219,自行車竊盜,2015-08-05,20,22,臺北市內湖區內湖路1段387巷3弄1~30號,25.0823012,121.5709187
220,自行車竊盜,2015-08-06,02,04,臺北市信義區景勤里吳興街156巷31~60號,25.0282633,121.560446
221,自行車竊盜,2015-08-06,20,22,臺北市萬華區民和街31~60號,25.0257777,121.4992654
222,自行車竊盜,2015-08-07,18,20,臺北市北投區大同里光明路1~30號,25.131841,121.498633
223,自行車竊盜,2015-08-09,20,22,臺北市士林區福德里福德路1~30號,25.093535,121.52623
224,自行車竊盜,2015-08-10,12,14,臺北市南港區三重里三重路1~30號,25.0556136,121.6137698
225,自行車竊盜,2015-08-10,14,16,臺北市北投區大同里光明路1~30號,25.131841,121.498633
226,自行車竊盜,2015-08-10,20,22,臺北市北投區石牌里明德路91~120號,25.1090387,121.5188432
227,自行車竊盜,2015-08-14,00,02,臺北市南港區三重里(南港展覽館捷運站5號,25.0548748,121.6168358
228,自行車竊盜,2015-08-14,10,12,臺北市信義區永春里中坡北路15巷(口),25.0450229,121.5806579
229,自行車竊盜,2015-08-15,00,02,臺北市士林區文林路91~120號,25.0877799,121.5259623
230,自行車竊盜,2015-08-15,10,12,臺北市北投區承德路7段(洲美橋下),25.1148763,121.4995021
231,自行車竊盜,2015-08-16,00,02,臺北市信義區興隆里忠孝東路4段(國館捷運3號,25.0413783,121.5575216
232,自行車竊盜,2015-08-16,12,14,臺北市大安區建倫里忠孝東路4段121~150號,25.0417123,121.5484085
233,自行車竊盜,2015-08-17,20,22,臺北市南港區新光里忠孝東路6段451~480號,25.0506282,121.5937913
234,自行車竊盜,2015-08-17,20,22,臺北市士林區天玉里中山北路7段51巷1~30號,25.1203521,121.5306092
235,自行車竊盜,2015-08-19,14,16,臺北市大安區信義路與敦化路(口),25.0332,121.54821
236,自行車竊盜,2015-08-20,02,04,臺北市中正區黎明里館前路1~30號,25.0464714,121.5150033
237,自行車竊盜,2015-08-21,08,10,臺北市大同區光能里赤峰街41巷1~30號,25.0549082,121.5199782
238,自行車竊盜,2015-08-21,08,10,臺北市大同區光能里赤峰街41巷1~30號,25.0549082,121.5199782
239,自行車竊盜,2015-08-21,14,16,臺北市大安區義安里信義路4段181~210號,25.0334507,121.5508313
240,自行車竊盜,2015-08-23,10,12,臺北市中正區黎明里忠孝西路1段31~60號,25.0460292,121.5189853
241,自行車竊盜,2015-08-24,00,02,臺北市信義區興雅里忠孝東路5段(市府捷運站YOUBIKE自行車停放區),25.0414507,121.5662641
242,自行車竊盜,2015-08-26,18,20,臺北市大安區芳和里5鄰和平東路3段151~180號,25.024284,121.547989
243,自行車竊盜,2015-08-28,18,20,臺北市內湖區康樂街76巷1~30號,25.0699368,121.6187628
244,自行車竊盜,2015-08-30,08,10,臺北市士林區福德里中正路435巷1~30號,25.0933413,121.5204245
245,自行車竊盜,2015-08-30,16,18,臺北市大安區住安里復興南路2段1~30號,25.0279362,121.5437345
246,自行車竊盜,2015-08-30,18,20,臺北市北投區石牌里明德路91~120號,25.1090387,121.5188432
247,自行車竊盜,2015-08-31,10,12,臺北市南港區合成里忠孝東路6段403巷(口),25.0509233,121.5932929
248,自行車竊盜,2015-09-01,16,18,臺北市士林區承德里基河路1~30號,25.0822335,121.5240616
249,自行車竊盜,2015-09-02,00,02,臺北市大安區古風里雲和街61~90號,25.0236169,121.5297
250,自行車竊盜,2015-09-03,06,08,臺北市信義區新仁里忠孝東路4段(光復南路口國館4號,25.0413783,121.5575216
251,自行車竊盜,2015-09-04,14,16,臺北市文山區興泰里辛亥路4段(辛亥捷運站自行車停車格),25.0055191,121.5570925
252,自行車竊盜,2015-09-06,20,22,臺北市大同區玉泉里捷運北門站2號,25.049285,121.510278
253,自行車竊盜,2015-09-07,16,18,臺北市北投區光明路1~30號,25.1325138,121.4993589
254,自行車竊盜,2015-09-07,18,20,臺北市大安區學府里辛亥路與羅斯福路口,25.0195877,121.5294762
255,自行車竊盜,2015-09-08,06,08,臺北市士林區舊佳里中正路211~240號,25.0953383,121.5265879
256,自行車竊盜,2015-09-09,16,18,臺北市北投區石牌里西安街1段(明德捷運站旁人行道),25.1098383,121.5187479
257,自行車竊盜,2015-09-10,06,08,臺北市士林區義信里中山北路5段61~90號,25.0836168,121.5255946
258,自行車竊盜,2015-09-10,12,14,臺北市內湖區民權東路6段136巷31~60號,25.0674039,121.5877661
259,自行車竊盜,2015-09-11,06,08,臺北市士林區德行里福國路61~90號,25.1017967,121.5235298
260,自行車竊盜,2015-09-12,12,14,臺北市士林區義信里中山北路5段61~90號,25.0836168,121.5255946
261,自行車竊盜,2015-09-12,22,24,臺北市大同區老師里延平北路4段181~210號,25.0736987,121.5116032
262,自行車竊盜,2015-09-13,08,10,臺北市中正區黎明里北平西路3段((臺北火車站外東北角行人道)),25.0477942,121.5169537
263,自行車竊盜,2015-09-13,20,22,臺北市中正區黎明里常德街1~30號,25.0416163,121.5171944
264,自行車竊盜,2015-09-14,06,08,臺北市內湖區成功路2段321巷,25.0701593,121.5904498
265,自行車竊盜,2015-09-14,18,20,臺北市大同區華陰街24巷6弄,25.0486915,121.5194094
266,自行車竊盜,2015-09-14,18,20,臺北市中山區華陰街24巷6弄,25.0486915,121.5194094
267,自行車竊盜,2015-09-15,00,02,臺北市松山區民生東路5段137巷口,25.0590165,121.5615984
268,自行車竊盜,2015-09-15,00,02,臺北市大安區瑞安街208巷1~30號,25.0283264,121.5403786
269,自行車竊盜,2015-09-15,02,04,臺北市中正區新營里羅斯福路1段83巷1~30號,25.0312422,121.5199051
270,自行車竊盜,2015-09-15,04,06,臺北市中正區文祥里杭州南路1段101巷1~30號,25.037867,121.5253125
271,自行車竊盜,2015-09-15,06,08,臺北市中山區建國北路2段91~120號,25.0587151,121.5373897
272,自行車竊盜,2015-09-15,20,22,臺北市中正區幸福里忠孝東路1段58巷(善導寺捷運站3號,25.0448491,121.5233604
273,自行車竊盜,2015-09-15,20,22,臺北市大安區復興南路1段361~390號,25.0337969,121.5431873
274,自行車竊盜,2015-09-17,04,06,臺北市信義區基隆路1段121~150號,25.0447694,121.566965
275,自行車竊盜,2015-09-17,16,18,臺北市萬華區西寧南路61~90號,25.0465657,121.5070389
276,自行車竊盜,2015-09-18,06,08,臺北市大安區羅斯福路2段15巷,25.0281597,121.5219615
277,自行車竊盜,2015-09-19,18,20,臺北市大同區鄭州路121~150號,25.0503611,121.5109208
278,自行車竊盜,2015-09-19,18,20,臺北市士林區葫東里重慶北路4段220巷1~30號,25.0858481,121.5115311
279,自行車竊盜,2015-09-19,22,24,臺北市中正區建國里(中山南路與愛國西路口),25.0348279,121.516669
280,自行車竊盜,2015-09-21,16,18,臺北市文山區萬年里羅斯福路5段170巷(公館街口),25.0046498,121.5380383
281,自行車竊盜,2015-09-23,08,10,臺北市士林區社園里延平北路6段151~180號,25.0892786,121.507508
282,自行車竊盜,2015-09-23,16,18,臺北市中正區南門里廣州街8巷(口),25.034887,121.5082
283,自行車竊盜,2015-09-24,06,08,臺北市大同區至聖里承德路3段225巷1~30號,,
284,自行車竊盜,2015-09-24,08,10,臺北市大同區至聖里承德路3段225巷1~30號,,
285,自行車竊盜,2015-09-26,22,24,臺北市松山區市民大道6段(腳踏車停放區),25.0508556,121.5700363
286,自行車竊盜,2015-09-29,08,10,臺北市中山區南京東路3段與龍江路口,25.052005,121.5404458
287,自行車竊盜,2015-10-01,10,12,臺北市大安區學府里羅斯福路4段1~30號,25.0173405,121.5397518
288,自行車竊盜,2015-10-01,16,18,臺北市士林區中山北路忠誠路口,25.103558,121.525772
289,自行車竊盜,2015-10-01,22,24,臺北市中山區圓山捷運站自行車停車場,25.0716662,121.5221636
290,自行車竊盜,2015-10-02,08,10,臺北市大安區羅斯福路2段31~60號,25.02786,121.522134
291,自行車竊盜,2015-10-02,22,24,臺北市內湖區港墘路127巷1~30號,25.0776736,121.5764182
292,自行車竊盜,2015-10-04,02,04,臺北市大安區杭州南路2段93巷31~60號,25.0286328,121.5239494
293,自行車竊盜,2015-10-04,18,20,臺北市萬華區漢口街2段61~90號,25.0460902,121.5057973
294,自行車竊盜,2015-10-05,18,20,臺北市大同區光能里南京西路25巷1~30號,25.0542025,121.5203301
295,自行車竊盜,2015-10-05,18,20,臺北市中山區南京西路25巷1~30號,25.0542025,121.5203301
296,自行車竊盜,2015-10-06,16,18,臺北市大同區玉泉里忠孝西路(塔城街),25.0482298,121.5101097
297,自行車竊盜,2015-10-07,16,18,臺北市南港區舊莊里舊莊街1段1~30號,25.04132,121.61952
298,自行車竊盜,2015-10-07,20,22,臺北市大同區玉泉里鄭州路121~150號,25.0503611,121.5109208
299,自行車竊盜,2015-10-08,18,20,臺北市中正區頂東里羅斯福路3段91~120號,25.022693,121.526267
300,自行車竊盜,2015-10-10,06,08,臺北市中正區富水里思源街1~30號,25.0133312,121.5306056
301,自行車竊盜,2015-10-10,10,12,臺北市萬華區永福街31~60號,25.0383565,121.5050421
302,自行車竊盜,2015-10-10,10,12,臺北市南港區中南里忠孝東路7段571~600號,25.0531174,121.6141292
303,自行車竊盜,2015-10-10,20,22,臺北市信義區四育里虎林街46巷31~60號,25.047178,121.575263
304,自行車竊盜,2015-10-11,04,06,臺北市大同區揚雅里昌吉街61巷35弄1~30號,25.066781,121.5150424
305,自行車竊盜,2015-10-11,04,06,臺北市大同區揚雅里昌吉街61巷35弄1~30號,25.066781,121.5150424
306,自行車竊盜,2015-10-11,06,08,臺北市大同區蓬萊里重慶北路3段31~60號,25.0650477,121.5139088
307,自行車竊盜,2015-10-11,16,18,臺北市士林區葫東里延平北路5段211~240號,25.0837867,121.5098835
308,自行車竊盜,2015-10-12,16,18,臺北市大安區敦安里仁愛路與安和路口,25.037788,121.5512615
309,自行車竊盜,2015-10-13,12,14,臺北市北投區一德里大度路3段296巷(關渡捷運站前自行車停放區),25.12563,121.4671
310,自行車竊盜,2015-10-14,12,14,臺北市內湖區安泰街53巷1~30號,25.0743592,121.6171229
311,自行車竊盜,2015-10-15,08,10,臺北市中正區富水里思源街1~30號,25.0133312,121.5306056
312,自行車竊盜,2015-10-16,14,16,臺北市中山區德惠街1~30號,25.0668904,121.5229555
313,自行車竊盜,2015-10-19,06,08,臺北市中正區富水里思源街1~30號,25.0133312,121.5306056
314,自行車竊盜,2015-10-19,14,16,臺北市中正區幸市里忠孝東路二段91~120號,25.0429769,121.530731
315,自行車竊盜,2015-10-21,18,20,臺北市大同區景星里伊寧街48巷1~30號,25.064479,121.510686
316,自行車竊盜,2015-10-23,08,10,臺北市大安區華聲里忠孝東路4段301~330號,25.041621,121.555208
317,自行車竊盜,2015-10-26,10,12,臺北市中正區板溪里和平西路1段31~60號,25.0267156,121.521412
318,自行車竊盜,2015-10-26,20,22,臺北市文山區景華里景華街22巷1~30號,24.9942506,121.5421746
319,自行車竊盜,2015-10-27,06,08,臺北市文山區萬年里羅斯福路5段31~60號,25.0076829,121.538678
320,自行車竊盜,2015-10-27,12,14,臺北市士林區聖山里忠誠路1段171巷10弄1~30號,25.1071869,121.5308121
321,自行車竊盜,2015-10-27,20,22,臺北市萬華區西昌街21巷1~30號,25.0428015,121.5005953
322,自行車竊盜,2015-11-01,12,14,臺北市大同區保安里重慶北路3段295巷21弄1~30號,25.0737589,121.5149019
323,自行車竊盜,2015-11-02,08,10,臺北市大同區永樂里民樂街31~60號,25.0545069,121.511084
324,自行車竊盜,2015-11-03,14,16,臺北市中正區愛國西路與重慶南路(小南門站2號,25.0356186,121.5108002
325,自行車竊盜,2015-11-03,18,20,臺北市信義區松隆里福德街1~30號,25.0361101,121.5786123
326,自行車竊盜,2015-11-03,20,22,臺北市大安區龍圖里信義路3段181~210號,25.0332971,121.5424362
327,自行車竊盜,2015-11-04,04,06,臺北市大同區景星里迪化街2段61~90號,25.0647217,121.5094156
328,自行車竊盜,2015-11-04,04,06,臺北市大同區蓬萊里大龍街31~60號,25.0638904,121.5160771
329,自行車竊盜,2015-11-05,00,02,臺北市大同區建明里華陰街31~60號,25.0497692,121.5174814
330,自行車竊盜,2015-11-05,20,22,臺北市內湖區內湖路1段661~690號,25.080287,121.5738534
331,自行車竊盜,2015-11-08,12,14,臺北市萬華區桂林路1~30號,25.0379199,121.5057287
332,自行車竊盜,2015-11-09,04,06,臺北市大安區敦安里敦化南路1段295巷31~60號,25.035761,121.5493317
333,自行車竊盜,2015-11-10,18,20,臺北市信義區景新里莊敬路211~240號,25.0303627,121.5617888
334,自行車竊盜,2015-11-11,10,12,臺北市內湖區文德路211~240號,25.0787994,121.5867284
335,自行車竊盜,2015-11-11,22,24,臺北市信義區西村里基隆路1段331~360號,25.0346448,121.5607742
336,自行車竊盜,2015-11-12,14,16,臺北市內湖區民權東路4段181~210號,25.0622436,121.5579338
337,自行車竊盜,2015-11-12,20,22,臺北市中正區徐州路1~30號,25.0420499,121.5190241
338,自行車竊盜,2015-11-15,10,12,臺北市北投區石牌里西安街1段121~150號,25.1074538,121.5201426
339,自行車竊盜,2015-11-15,10,12,臺北市大安區龍生里和平東路2段151~180號,25.0253916,121.5412489
340,自行車竊盜,2015-11-20,22,24,臺北市大安區仁慈里復興南路1段295巷13弄1~30號,25.0352262,121.5443269
341,自行車竊盜,2015-11-21,02,04,臺北市中正區東門里徐州路1~30號,25.0420499,121.5190241
342,自行車竊盜,2015-11-21,10,12,臺北市北投區福興里致遠一路2段31~60號,25.1113981,121.5139789
343,自行車竊盜,2015-11-22,02,04,臺北市中山區錦州街421~450號,25.0603739,121.5422127
344,自行車竊盜,2015-11-22,16,18,臺北市中正區南福里南昌路1段126巷1~30號,25.0296467,121.5182196
345,自行車竊盜,2015-11-22,16,18,臺北市信義區興雅里松高路1~30號,25.039745,121.5642046
346,自行車竊盜,2015-11-23,08,10,臺北市北投區榮光里石牌路1段166巷121~150號,25.1143876,121.5136339
347,自行車竊盜,2015-11-24,14,16,臺北市北投區中央里中央南路2段1~30號,25.1260487,121.5005871
348,自行車竊盜,2015-11-26,14,16,臺北市信義區泰和里吳興街600巷100弄91~120號,25.017088,121.572734
349,自行車竊盜,2015-11-27,16,18,臺北市南港區萬福里同德路61~90號,25.0457117,121.5848791
350,自行車竊盜,2015-11-28,18,20,臺北市萬華區廣州街211~240號,25.0369892,121.4999073
351,自行車竊盜,2015-12-01,12,14,臺北市內湖區民權東路6段120巷1弄1~30號,25.0684793,121.5873212
352,自行車竊盜,2015-12-02,00,02,臺北市松山區復興北路151~180號,25.0536578,121.5444713
353,自行車竊盜,2015-12-03,02,04,臺北市中山區民生西路45巷3弄1~30號,25.0580509,121.5209601
354,自行車竊盜,2015-12-03,06,08,臺北市北投區榮光里石牌路1段166巷61~90號,25.114041,121.515006
355,自行車竊盜,2015-12-03,14,16,臺北市北投區裕民里東陽街411巷1~30號,25.112603,121.5177724
356,自行車竊盜,2015-12-03,16,18,臺北市南港區合成里永吉路601~630號,25.045546,121.582241
357,自行車竊盜,2015-12-04,22,24,臺北市北投區石牌里西安街1段165巷(對面人行道),25.1096016,121.518643
358,自行車竊盜,2015-12-05,12,14,臺北市中正區黎明里7號,25.0436131,121.5212855
359,自行車竊盜,2015-12-06,06,08,臺北市內湖區東湖路113巷49弄31~60號,25.069949,121.6152027
360,自行車竊盜,2015-12-06,18,20,臺北市大同區保安里哈密街68巷1~30號,25.073401,121.51756
361,自行車竊盜,2015-12-10,00,02,臺北市文山區興豐里興隆路2段241~270號,25.0019609,121.551362
362,自行車竊盜,2015-12-10,22,24,臺北市大同區雙連里雙連街31~60號,25.0586843,121.5190845
363,自行車竊盜,2015-12-13,10,12,臺北市大同區蓬萊里承德路3段51巷1~30號,25.0651491,121.5187283
364,自行車竊盜,2015-12-19,22,24,臺北市大同區蔣渭水公園之YOUBIKE租借站,25.059885,121.516299
365,自行車竊盜,2015-12-20,02,04,臺北市中正區廈安里汀州路1段1~30號,25.0295277,121.5082232
366,自行車竊盜,2015-12-20,14,16,臺北市中山區北安路569之1~30號,25.0809155,121.5482474
367,自行車竊盜,2015-12-20,18,20,臺北市大安區羅斯福路4段1~30號,25.0173405,121.5397518
368,自行車竊盜,2015-12-22,18,20,臺北市信義區三張里松仁路211~240號,25.026877,121.568539
369,自行車竊盜,2015-12-23,22,24,臺北市中山區明水路397巷19弄1~30號,25.078474,121.548237
370,自行車竊盜,2015-12-24,16,18,臺北市北投區榮光里西安街2段(石牌國中側門人行道上),25.1158345,121.5135413
371,自行車竊盜,2015-12-25,12,14,臺北市文山區景華里景興路46巷(景興國中左側門),24.996515,121.543713
372,自行車竊盜,2015-12-25,16,18,臺北市文山區景華里景興路46弄(景興國中大門旁停車格),24.996515,121.543713
373,自行車竊盜,2015-12-25,18,20,臺北市中山區農安街31~60號,25.0649976,121.5250092
374,自行車竊盜,2015-12-25,18,20,臺北市中山區新生北路3段88巷口,25.0679074,121.5265838
375,自行車竊盜,2015-12-26,18,20,臺北市北投區東華里致遠三路91~120號,25.12152,121.5111453
376,自行車竊盜,2015-12-26,18,20,臺北市中山區新生北路3段31~60號,25.0646869,121.5280576
377,自行車竊盜,2015-12-27,22,24,臺北市文山區景華里景華街31~60號,24.9950932,121.542456
378,自行車竊盜,2015-12-28,18,20,臺北市中正區南門里廣州街8巷(口),25.034887,121.5082
379,自行車竊盜,2015-12-29,08,10,臺北市信義區景聯里基隆路2段31~60號,25.0282622,121.5569803
380,自行車竊盜,2015-12-29,20,22,臺北市中山區新生北路2段137巷31~60號,25.0613583,121.5287358
381,自行車竊盜,2015-12-31,00,02,臺北市萬華區西昌街151~180號,25.0394755,121.5007886
382,自行車竊盜,2016-01-01,02,04,臺北市信義區正和里仁愛路4段481~510號,25.0378405,121.5575001
383,自行車竊盜,2016-01-01,18,20,臺北市南港區中南里忠孝東路7段596巷1~30號,25.052662,121.6147
384,自行車竊盜,2016-01-03,22,24,臺北市萬華區和平西路3段121~150號,25.0353867,121.5000451
385,自行車竊盜,2016-01-04,20,22,臺北市北投區洲美里洲美街(洲美橋下401巷61~90號,25.101311,121.5036106
386,自行車竊盜,2016-01-05,22,24,臺北市大安區長興街31~60號,25.0168137,121.5452052
387,自行車竊盜,2016-01-10,08,10,臺北市士林區永倫里延平北路6段481~510號,25.0925778,121.4987556
388,自行車竊盜,2016-01-10,10,12,臺北市大安區復興南路2段211~240號,25.0279362,121.5437345
389,自行車竊盜,2016-01-18,12,14,臺北市松山區市民大道6段,25.0492013,121.5748262
390,自行車竊盜,2016-01-18,22,24,臺北市萬華區萬青街151~180號,25.0231193,121.5016919
391,自行車竊盜,2016-01-22,16,18,臺北市松山區南京東路5段291巷6弄1~30號,25.0520489,121.5658489
392,自行車竊盜,2016-01-26,12,14,臺北市士林區福德里中正路247巷(士林捷運站1號,25.0950067,121.5253773
393,自行車竊盜,2016-01-27,14,16,臺北市北投區石牌里石牌路1段121~150號,25.1144799,121.5134448
394,自行車竊盜,2016-01-28,00,02,臺北市大安區民輝里忠孝東路3段61~90號,25.041636,121.535784
395,自行車竊盜,2016-01-30,16,18,臺北市北投區榮光里石牌路1段181~210號,25.114971,121.5145744
396,自行車竊盜,2016-02-02,16,18,臺北市北投區立農里立農街1段571~600號,25.1193823,121.5108325
397,自行車竊盜,2016-02-04,02,04,臺北市萬華區萬大路486巷31~60號,25.0200679,121.496494
398,自行車竊盜,2016-02-04,10,12,臺北市大同區重慶北3路3段31~60號,25.0800199,121.513215
399,自行車竊盜,2016-02-04,12,14,臺北市中山區市民大道與中山北路口西北角,25.052685,121.520391
400,自行車竊盜,2016-02-06,02,04,臺北市萬華區成都路1~30號,25.0426587,121.5080133
401,自行車竊盜,2016-02-07,14,16,臺北市中山區龍江路271~300號,25.0595362,121.540871
402,自行車竊盜,2016-02-09,16,18,臺北市松山區八德路4段,25.0493693,121.5691881
403,自行車竊盜,2016-02-10,10,12,臺北市文山區信義路3段91~120號,25.033877,121.533515
404,自行車竊盜,2016-02-13,18,20,臺北市萬華區水源路181~210號,25.0234979,121.5109382
405,自行車竊盜,2016-02-16,04,06,臺北市內湖區康樂街151巷1~30號,25.0718486,121.6207598
406,自行車竊盜,2016-02-17,00,02,臺北市大同區星明里太原路152巷1~30號,25.0545028,121.5162178
407,自行車竊盜,2016-02-17,04,06,臺北市中正區水源里羅斯福路4段78巷1弄(內),25.0142437,121.5341721
408,自行車竊盜,2016-02-18,10,12,臺北市大安區華聲里市民大道4段181~210號,25.0445925,121.5432393
409,自行車竊盜,2016-02-20,12,14,臺北市文山區興業里23鄰辛亥路5段124巷,24.997043,121.5510742
410,自行車竊盜,2016-02-20,16,18,臺北市內湖區(內湖路一段1巷口旁人行道),25.0852569,121.5581212
411,自行車竊盜,2016-02-21,20,22,臺北市士林區聖山里忠義街31~60號,25.1054041,121.5305709
412,自行車竊盜,2016-02-22,10,12,臺北市大安區群賢里復興南路2段211~240號,25.0279362,121.5437345
413,自行車竊盜,2016-02-24,08,10,臺北市中正區新營里寧波東街9巷1~30號,25.0327805,121.5200612
414,自行車竊盜,2016-02-25,12,14,臺北市大安區德安里四維路76巷1~30號,25.0344121,121.5479838
415,自行車竊盜,2016-02-28,20,22,臺北市中山區松江路91~120號,25.0496362,121.533209
416,自行車竊盜,2016-03-01,12,14,臺北市中山區民權東路2段31~60號,25.0628088,121.5288509
417,自行車竊盜,2016-03-02,04,06,臺北市萬華區漢口街2段53巷1~30號,25.0460702,121.5064212
418,自行車竊盜,2016-03-03,12,14,臺北市萬華區中華路1段1~30號,25.0378428,121.5074055
419,自行車竊盜,2016-03-04,16,18,臺北市大安區光信里光復南路456巷1~30號,25.0354833,121.5566787
420,自行車竊盜,2016-03-05,08,10,臺北市文山區試院里28鄰木柵路177巷(內),24.9866925,121.5464311
421,自行車竊盜,2016-03-05,14,16,臺北市信義區安康里松仁路95巷1~30號,25.0365849,121.5706382
422,自行車竊盜,2016-03-05,20,22,臺北市大安區民輝里忠孝東路3段10巷,25.0411365,121.5334693
423,自行車竊盜,2016-03-06,20,22,臺北市中正區幸市里忠孝東路1段70巷(善導寺捷運站3號,25.0448491,121.5233604
424,自行車竊盜,2016-03-08,08,10,臺北市中正區富水里思源街1~30號,25.0133312,121.5306056
425,自行車竊盜,2016-03-09,16,18,臺北市中山區吉林路252之1~30號,25.0599252,121.5301185
426,自行車竊盜,2016-03-11,10,12,臺北市信義區安康里松仁路61~90號,25.0371809,121.5688295
427,自行車竊盜,2016-03-11,18,20,臺北市大同區重慶里敦煌路21巷,25.0767913,121.5165573
428,自行車竊盜,2016-03-14,12,14,臺北市大同區民族西路271~300號,25.0688327,121.5111219
429,自行車竊盜,2016-03-14,12,14,臺北市大同區民族西路271~300號,25.0688327,121.5111219
430,自行車竊盜,2016-03-14,12,14,臺北市大同區國慶里民族西路271~300號,25.0688327,121.5111219
431,自行車竊盜,2016-03-14,14,16,臺北市大同區重慶里承德路3段271~300號,25.0648588,121.518077
432,自行車竊盜,2016-03-14,16,18,臺北市大安區民輝里捷運忠孝新生站4號,25.04236,121.5329
433,自行車竊盜,2016-03-14,20,22,臺北市內湖區康樂街151巷(巷口人行道),25.0718752,121.6199728
434,自行車竊盜,2016-03-16,08,10,臺北市內湖區康樂街125巷1~30號,25.0711934,121.619286
435,自行車竊盜,2016-03-16,14,16,臺北市內湖區瑞光路271~300號,25.0753057,121.5769946
436,自行車竊盜,2016-03-16,18,20,臺北市中正區台北車站東側人行道自行車架處路,25.0471778,121.5172047
437,自行車竊盜,2016-03-19,10,12,臺北市松山區新東街20巷,25.0584457,121.5672319
438,自行車竊盜,2016-03-19,18,20,臺北市信義區永春里忠孝東路5段703巷1弄1~30號,25.04251,121.578983
439,自行車竊盜,2016-03-20,18,20,臺北市信義區永春里忠孝東路5段703巷1弄1~30號,25.04251,121.578983
440,自行車竊盜,2016-03-21,16,18,臺北市士林區福德里福德路1~30號,25.093535,121.52623
441,自行車竊盜,2016-03-22,16,18,臺北市大安區新龍里建國南路2段121~150號,25.029612,121.53832
442,自行車竊盜,2016-03-22,18,20,臺北市萬華區和平西路3段121~150號,25.0353867,121.5000451
443,自行車竊盜,2016-03-27,00,02,臺北市內湖區成功路4段1~30號,25.0835555,121.5937307
444,自行車竊盜,2016-03-27,10,12,臺北市北投區福興里承德路7段61~90號,25.1114085,121.5108854
445,自行車竊盜,2016-03-27,22,24,臺北市文山區景行里羅斯福路6段361~390號,24.9933811,121.5412649
446,自行車竊盜,2016-03-27,22,24,臺北市信義區興隆里忠孝東路(國父紀念館捷運站3號,25.0413783,121.5575216
447,自行車竊盜,2016-03-28,02,04,臺北市萬華區萬壽里漢口街2段74巷1~30號,25.0458926,121.5047238
448,自行車竊盜,2016-03-28,14,16,臺北市士林區福林里中正路235巷31~60號,25.0944914,121.5262383
449,自行車竊盜,2016-03-29,02,04,臺北市中山區吉林路331~360號,25.0640304,121.5304506
450,自行車竊盜,2016-03-30,08,10,臺北市內湖區東湖路91~120號,25.06903,121.613222
451,自行車竊盜,2016-03-31,22,24,臺北市南港區南港里興中路28巷(口對面人行道),25.0552509,121.6064224
452,自行車竊盜,2016-04-02,14,16,臺北市內湖區內湖路1段601~630號,25.0808417,121.5735288
453,自行車竊盜,2016-04-05,06,08,臺北市南港區合成里忠孝東路6段1~30號,25.045631,121.5827353
454,自行車竊盜,2016-04-05,12,14,臺北市北投區奇岩里公館路181~210號,25.128641,121.507155
455,自行車竊盜,2016-04-08,14,16,臺北市北投區桃源里中央北路3段53巷1~30號,25.1378887,121.4855437
456,自行車竊盜,2016-04-09,18,20,臺北市萬華區中華路2段364巷31~60號,25.0284227,121.5038193
457,自行車竊盜,2016-04-10,00,02,臺北市士林區仁勇里大北路61~90號,25.090043,121.525287
458,自行車竊盜,2016-04-10,00,02,臺北市中正區南福里寧波西街1~30號,25.0315748,121.5188063
459,自行車竊盜,2016-04-10,06,08,臺北市北投區八仙里立農街1段187巷10弄1~30號,25.1205548,121.504621
460,自行車竊盜,2016-04-10,10,12,臺北市松山區南京東路5段181~210號,25.0516936,121.5635782
461,自行車竊盜,2016-04-14,00,02,臺北市中山區松江路37巷1~30號,25.0475837,121.5334206
462,自行車竊盜,2016-04-17,20,22,臺北市南港區西新里昆陽街91~120號,25.0517418,121.5937017
463,自行車竊盜,2016-04-18,08,10,臺北市萬華區中華路2段121~150號,25.029695,121.504177
464,自行車竊盜,2016-04-19,22,24,臺北市萬華區華江雁鴨公園,25.0387025,121.4952208
465,自行車竊盜,2016-04-20,14,16,臺北市內湖區東湖路61~90號,25.06903,121.613222
466,自行車竊盜,2016-04-21,06,08,臺北市大安區住安里信義路4段61~90號,25.0335578,121.5454959
467,自行車竊盜,2016-04-21,08,10,臺北市大安區龍安里新生南路2段61~90號,25.0305591,121.5338566
468,自行車竊盜,2016-04-22,00,02,臺北市大安區民炤里仁愛路3段1~30號,25.0385361,121.5332043
469,自行車竊盜,2016-04-22,14,16,臺北市北投區奇岩里公館路257巷1~30號,25.1249152,121.5081207
470,自行車竊盜,2016-04-22,20,22,臺北市北投區奇岩里公館路257巷1~30號,25.1249152,121.5081207
471,自行車竊盜,2016-04-23,14,16,臺北市北投區榮光里西安街2段(石牌國中後門人行道),25.1158345,121.5135413
472,自行車竊盜,2016-04-24,18,20,臺北市大同區保安里哈密街61~90號,25.0731272,121.5154076
473,自行車竊盜,2016-04-25,18,20,臺北市大安區福住里新生南路2段31~60號,25.0305591,121.5338566
474,自行車竊盜,2016-04-27,18,20,臺北市文山區萬隆里羅斯福路6段1~30號,25.0001404,121.5395134
475,自行車竊盜,2016-04-28,00,02,臺北市大安區光武里6鄰忠孝東路4段101巷31~60號,25.0420988,121.5481693
476,自行車竊盜,2016-04-29,12,14,臺北市北投區振華里東華街1段(石牌捷運站腳踏車停放處),25.1144046,121.515609
477,自行車竊盜,2016-04-29,18,20,臺北市大同區大有里環河北路1段271~300號,25.058436,121.50861
478,自行車竊盜,2016-04-30,16,18,臺北市中正區龍光里重慶南路3段31~60號,25.0283741,121.5159219
479,自行車竊盜,2016-05-01,14,16,臺北市中正區南門里廣州街8巷(南門國中旁人行道),25.0343607,121.5089837
480,自行車竊盜,2016-05-01,18,20,臺北市大安區法治里基隆路2段151~180號,25.0282622,121.5569803
481,自行車竊盜,2016-05-02,08,10,臺北市大安區福住里新生南路2段31~60號,25.0305591,121.5338566
482,自行車竊盜,2016-05-02,14,16,臺北市中山區長安東路1段30巷3弄華山公園,25.0461209,121.5268353
483,自行車竊盜,2016-05-04,16,18,臺北市中正區永昌里汀州路1段226巷1~30號,25.0275196,121.5098665
484,自行車竊盜,2016-05-04,20,22,臺北市大同區南芳里迪化街1段331~360號,25.0625579,121.5093696
485,自行車竊盜,2016-05-04,20,22,臺北市大安區學府里基隆路3段61~90號,25.0194463,121.547313
486,自行車竊盜,2016-05-05,06,08,臺北市北投區吉慶里致遠二路15巷(對面石牌國小人行道上),25.1154038,121.5124252
487,自行車竊盜,2016-05-05,16,18,臺北市北投區吉利里致遠二路15巷,25.1146906,121.511808
488,自行車竊盜,2016-05-06,10,12,臺北市北投區永明里義理街61~90號,25.1172239,121.5156306
489,自行車竊盜,2016-05-08,06,08,臺北市大同區星明里太原路175巷1~30號,25.0559386,121.5170303
490,自行車竊盜,2016-05-09,00,02,臺北市中正區忠勤里中華路2段309巷1~30號,25.0287081,121.5054539
491,自行車竊盜,2016-05-10,12,14,臺北市士林區義信里中山北路5段61~90號,25.0836168,121.5255946
492,自行車竊盜,2016-05-10,16,18,臺北市中山區中山北路3段1~30號,25.0654051,121.5220279
493,自行車竊盜,2016-05-10,22,24,臺北市中正區愛國里中華路2段75巷1~30號,25.0334523,121.5078751
494,自行車竊盜,2016-05-11,08,10,臺北市萬華區內江街81巷1~30號,25.0418955,121.5043324
495,自行車竊盜,2016-05-11,16,18,臺北市信義區信義路4段361~390號,25.0331586,121.5571783
496,自行車竊盜,2016-05-12,02,04,臺北市大安區通化里信義路4段400巷6弄1~30號,25.0327014,121.556499
497,自行車竊盜,2016-05-12,22,24,臺北市中正區忠勤里中華路2段313巷1~30號,25.0281747,121.5059295
498,自行車竊盜,2016-05-15,00,02,臺北市萬華區康定路361~390號,25.0331795,121.5005597
499,自行車竊盜,2016-05-16,22,24,臺北市北投區稻香里稻香路161巷1~30號,25.141594,121.4876922
500,自行車竊盜,2016-05-17,14,16,臺北市大安區福住里新生南路與金華街口,25.0298538,121.5331684
501,自行車竊盜,2016-05-19,20,22,臺北市內湖區(星雲街168巷口),25.080494,121.5970076
502,自行車竊盜,2016-05-19,20,22,臺北市松山區八德路4段721~750號,25.0502427,121.577206
503,自行車竊盜,2016-05-20,02,04,臺北市南港區舊莊里舊莊街1段145巷2弄1~30號,25.0399417,121.6205275
504,自行車竊盜,2016-05-20,20,22,臺北市大安區群賢里和平東路2段311巷,25.0248755,121.5451063
505,自行車竊盜,2016-05-22,04,06,臺北市中正區幸市里(忠孝新生1號,25.04236,121.5329
506,自行車竊盜,2016-05-22,06,08,臺北市南港區南港里興中路61~90號,25.0567315,121.6069894
507,自行車竊盜,2016-05-22,20,22,臺北市北投區石牌里石牌路1段166巷43弄1~30號,25.114041,121.515006
508,自行車竊盜,2016-05-23,10,12,臺北市中正區南門里廣州街8巷(南門國中旁人行道),25.0343607,121.5089837
509,自行車竊盜,2016-05-23,12,14,臺北市萬華區西藏路125巷1~30號,25.029364,121.5022804
510,自行車竊盜,2016-05-23,20,22,臺北市文山區萬有里景明街11巷(興隆路一段184巷),25.0015377,121.5415465
511,自行車竊盜,2016-05-24,06,08,臺北市大同區朝陽里南京西路331~360號,25.0538426,121.5077297
512,自行車竊盜,2016-05-24,18,20,臺北市中正區南門里廣州街8巷(口),25.034887,121.5082
513,自行車竊盜,2016-05-25,12,14,臺北市士林區福德里福德路1~30號,25.093535,121.52623
514,自行車竊盜,2016-05-25,18,20,臺北市中正區永昌里詔安街151~180號,25.0270816,121.5091141
515,自行車竊盜,2016-05-26,14,16,臺北市松山區敦化北路1~30號,25.048607,121.550231
516,自行車竊盜,2016-05-28,02,04,臺北市內湖區西湖里19鄰內湖路1段285巷1~30號,25.0829709,121.5669829
517,自行車竊盜,2016-05-29,10,12,臺北市北投區大同里北投路1段1~30號,25.130273,121.499443
518,自行車竊盜,2016-05-29,12,14,臺北市士林區芝山里芝玉路2段20巷91~120號,25.1112282,121.5349975
519,自行車竊盜,2016-06-01,16,18,臺北市松山區民生東路4段121~150號,25.058281,121.553485
520,自行車竊盜,2016-06-02,16,18,臺北市大安區住安里信義路4段61~90號,25.0335578,121.5454959
521,自行車竊盜,2016-06-03,06,08,臺北市北投區榮光里西安街2段(捷運線形公園旁人行道上),25.1204835,121.5067601
522,自行車竊盜,2016-06-04,10,12,臺北市松山區新中街6巷1~30號,25.0583745,121.5606342
523,自行車竊盜,2016-06-08,06,08,臺北市中山區區公所旁之自行車停車位,25.0569054,121.5368075
524,自行車竊盜,2016-06-08,10,12,臺北市士林區芝山里芝玉路2段20巷91~120號,25.1112282,121.5349975
525,自行車竊盜,2016-06-08,10,12,臺北市內湖區成功路3段187巷35弄1~30號,25.0793045,121.591607
526,自行車竊盜,2016-06-10,02,04,臺北市大安區正聲里仁愛路4段421~450號,25.0380599,121.5562751
527,自行車竊盜,2016-06-13,16,18,臺北市大安區正聲里忠孝東路4段301~330號,25.041621,121.555208
528,自行車竊盜,2016-06-14,18,20,臺北市大安區龍門里新生南路2段1~30號,25.0310609,121.535552
529,自行車竊盜,2016-06-14,20,22,臺北市南港區南港里興中路61~90號,25.0567315,121.6069894
530,自行車竊盜,2016-06-15,00,02,臺北市內湖區成功路4段181~210號,25.0838652,121.5949189
531,自行車竊盜,2016-06-15,12,14,臺北市松山區(捷運南京三民站1號,25.051429,121.563858
532,自行車竊盜,2016-06-15,12,14,臺北市松山區(捷運南京三民站1號,25.051429,121.563858
533,自行車竊盜,2016-06-16,08,10,臺北市大同區保安里哈密街63巷,25.0736633,121.5152849
534,自行車竊盜,2016-06-16,08,10,臺北市大安區敦安里仁愛路4段121~150號,25.0381203,121.5505028
535,自行車竊盜,2016-06-16,10,12,臺北市萬華區青年路31~60號,25.0255274,121.5047614
536,自行車竊盜,2016-06-17,02,04,臺北市大安區仁慈里信義路4段53巷,25.0343104,121.5450948
537,自行車竊盜,2016-06-17,20,22,臺北市文山區興業里2鄰興隆路2段151~180號,25.0015959,121.5514261
538,自行車竊盜,2016-06-18,02,04,臺北市大安區錦泰里杭州南路2段61巷1~30號,25.029979,121.523981
539,自行車竊盜,2016-06-19,00,02,臺北市文山區興得里興隆路3段211~240號,24.994676,121.559772
540,自行車竊盜,2016-06-20,16,18,臺北市萬華區中華路2段361~390號,25.0267087,121.5073984
541,自行車竊盜,2016-06-22,20,22,臺北市大安區敦安里安和路1段61~90號,25.0374557,121.5517838
542,自行車竊盜,2016-06-23,16,18,臺北市大安區光明里杭州南路2段1~30號,25.028325,121.521909
543,自行車竊盜,2016-06-24,02,04,臺北市萬華區寶興街121~150號,25.0252155,121.4948481
544,自行車竊盜,2016-06-25,04,06,臺北市內湖區安康路1~30號,25.0661739,121.611413
545,自行車竊盜,2016-06-25,20,22,臺北市大安區龍雲里大安路2段91~120號,25.0296563,121.546868
546,自行車竊盜,2016-06-25,22,24,臺北市信義區長春里松山路271~300號,25.043507,121.5780221
547,自行車竊盜,2016-06-27,02,04,臺北市信義區中行里福德街268巷31~60號,25.0401855,121.585448
548,自行車竊盜,2016-06-27,06,08,臺北市士林區明勝里承德路4段9巷1~30號,25.0793736,121.5218686
549,自行車竊盜,2016-06-27,12,14,臺北市大安區敦煌里安和路1段135巷1~30號,25.0343401,121.5528991
550,自行車竊盜,2016-06-28,14,16,臺北市大安區龍安里和平東路1段181~210號,25.0264466,121.5328981
551,自行車竊盜,2016-06-28,18,20,臺北市松山區敦化北路331~360號,25.059274,121.550263
552,自行車竊盜,2016-06-29,00,02,臺北市信義區五全里松信路121~150號,25.044371,121.572236
553,自行車竊盜,2016-06-30,08,10,臺北市內湖區內湖路2段263巷21弄1~30號,25.0831649,121.5901343
554,自行車竊盜,2016-07-01,12,14,臺北市大安區芳和里臥龍街121~150號,25.0189225,121.550575
555,自行車竊盜,2016-07-03,02,04,臺北市信義區忠孝東路4段(國父紀念館3號,25.0413783,121.5575216
556,自行車竊盜,2016-07-03,06,08,臺北市大安區龍門里大安森林公園五出口自行車停車場,25.032435,121.5349054
557,自行車竊盜,2016-07-03,22,24,臺北市信義區安康里松德路61~90號,25.0385547,121.5767865
558,自行車竊盜,2016-07-03,22,24,臺北市大安區仁慈里信義路4段19巷1~30號,25.0341806,121.544336
559,自行車竊盜,2016-07-04,20,22,臺北市松山區敦化北路222巷61~90號,25.059308,121.548245
560,自行車竊盜,2016-07-08,10,12,臺北市中正區螢圃里重慶南路3段61~90號,25.0267015,121.5163423
561,自行車竊盜,2016-07-11,16,18,臺北市大同區哈密街59巷,25.0745397,121.5157293
562,自行車竊盜,2016-07-12,20,22,臺北市文山區明義里016鄰興隆路4段107巷31~60號,24.9856569,121.561461
563,自行車竊盜,2016-07-15,12,14,臺北市大安區學府里羅斯福路4段1~30號,25.0173405,121.5397518
564,自行車竊盜,2016-07-15,14,16,臺北市松山區八德路3段31~60號,25.0484306,121.5576098
565,自行車竊盜,2016-07-15,18,20,臺北市北投區永明里石牌路2段99巷1~30號,25.1176889,121.516472
566,自行車竊盜,2016-07-16,10,12,臺北市信義區興雅里興雅路(貴婦百貨後方),25.0396576,121.5677521
567,自行車竊盜,2016-07-17,12,14,臺北市文山區木柵里007鄰木柵路3段61~90號,24.9886876,121.5665694
568,自行車竊盜,2016-07-19,16,18,臺北市松山區南京東路5段(三民路口),25.051429,121.563858
569,自行車竊盜,2016-07-21,06,08,臺北市內湖區(港墘捷運站1號,25.0800546,121.5752003
570,自行車竊盜,2016-07-22,22,24,臺北市中山區建國北路2段96巷口,25.057874,121.5348394
571,自行車竊盜,2016-07-25,04,06,臺北市文山區興福里興隆路1段260巷1~30號,24.9990066,121.5441846
572,自行車竊盜,2016-07-25,08,10,臺北市文山區興邦里1鄰興隆路2段121~150號,25.0013345,121.5498781
573,自行車竊盜,2016-07-25,14,16,臺北市中山區長安東路1段11巷1~30號,25.0501165,121.5226204
574,自行車竊盜,2016-07-25,22,24,臺北市信義區興隆里忠孝東路5段(國父紀念館北側),25.0400306,121.5602452
575,自行車竊盜,2016-07-26,20,22,臺北市信義區興隆里忠孝東路(國館三號,25.0413783,121.5575216
576,自行車竊盜,2016-07-26,20,22,臺北市信義區興雅里松高路1~30號,25.039745,121.5642046
577,自行車竊盜,2016-07-26,20,22,臺北市信義區興雅里忠孝東路5段(市府捷運站1號,25.0411442,121.5663284
578,自行車竊盜,2016-07-29,18,20,臺北市信義區興隆里忠孝東路5段(國父紀念館3號,25.0411442,121.5663284
579,自行車竊盜,2016-07-30,00,02,臺北市中山區民生東路3段91~120號,25.0580147,121.5445182
580,自行車竊盜,2016-07-30,14,16,臺北市松山區三民路43巷1~30號,25.0565733,121.562421
581,自行車竊盜,2016-07-30,16,18,臺北市北投區關渡里知行路61~90號,25.1181949,121.4674454
582,自行車竊盜,2016-07-31,02,04,臺北市萬華區馬場町河濱公園,25.0187093,121.5046883
583,自行車竊盜,2016-07-31,22,24,臺北市內湖區安泰街56巷1~30號,25.0747009,121.6167183
584,自行車竊盜,2016-08-01,12,14,臺北市南港區舊莊里舊莊街1段91巷1~30號,25.04132,121.61952
585,自行車竊盜,2016-08-01,20,22,臺北市大安區龍雲里大安路2段121~150號,25.0288983,121.5460144
586,自行車竊盜,2016-08-01,22,24,臺北市士林區社新里社子街22巷31~60號,25.0868367,121.5068141
587,自行車竊盜,2016-08-02,08,10,臺北市大同區國順里迪化街2段151~180號,25.0672727,121.5105042
588,自行車竊盜,2016-08-02,14,16,臺北市萬華區康定路331~360號,25.0337312,121.5008884
589,自行車竊盜,2016-08-03,06,08,臺北市萬華區西寧南路武昌街口,25.0458243,121.5058684
590,自行車竊盜,2016-08-04,06,08,臺北市大安區敦煌里仁愛路4段300巷1~30號,25.035584,121.5546124
591,自行車竊盜,2016-08-04,10,12,臺北市大安區永康里信義路2段121~150號,25.0333821,121.5323392
592,自行車竊盜,2016-08-05,08,10,臺北市萬華區西園路2段181~210號,25.0293413,121.4957544
593,自行車竊盜,2016-08-07,00,02,臺北市大安區龍門里大安森林公園捷運站五號,25.0335283,121.5353131
594,自行車竊盜,2016-08-07,14,16,臺北市中山區錦州街1~30號,25.0604415,121.5318562
595,自行車竊盜,2016-08-15,10,12,臺北市松山區富錦街61~90號,25.0602624,121.5510517
596,自行車竊盜,2016-08-16,04,06,臺北市大安區虎嘯里敦化南路2段211~240號,25.0236951,121.5483374
597,自行車竊盜,2016-08-16,08,10,臺北市中正區建國里中華路1段61~90號,25.0412145,121.5082102
598,自行車竊盜,2016-08-19,12,14,臺北市文山區木柵里029鄰木柵路3段102巷1~30號,24.98752,121.5676113
599,自行車竊盜,2016-08-19,22,24,臺北市文山區興邦里興隆路2段1~30號,25.0013345,121.5498781
600,自行車竊盜,2016-08-21,12,14,臺北市文山區順興里006鄰忠順街2段1~30號,24.9862845,121.5651366
601,自行車竊盜,2016-08-21,18,20,臺北市文山區木柵里029鄰木柵路3段102巷1~30號,24.98752,121.5676113
602,自行車竊盜,2016-08-22,10,12,臺北市大安區敦煌里信義路4段211~240號,25.0334063,121.5523049
603,自行車竊盜,2016-08-23,10,12,臺北市南港區中研里研究院路2段61巷2弄1~30號,25.0436877,121.6166325
604,自行車竊盜,2016-08-23,12,14,臺北市南港區舊莊里舊莊街1段91巷1~30號,25.04132,121.61952
605,自行車竊盜,2016-08-23,22,24,臺北市南港區東明里南港路2段86巷(內(南港郵局旁)),25.053867,121.6034169
606,自行車竊盜,2016-08-24,02,04,臺北市文山區景行里景中街1~30號,24.9931703,121.5415355
607,自行車竊盜,2016-08-24,08,10,臺北市大安區通化里文昌街271~300號,25.0323459,121.556024
608,自行車竊盜,2016-08-24,10,12,臺北市南港區中研里福山街56巷(與大坑街口),25.0462352,121.6173979
609,自行車竊盜,2016-08-24,20,22,臺北市文山區明義里022鄰木柵路2段2巷31~60號,24.988211,121.558027
610,自行車竊盜,2016-08-25,06,08,臺北市大安區義安里信義路與安和路口,25.0332705,121.5529574
611,自行車竊盜,2016-08-26,04,06,臺北市大同區保安里哈密街59巷31弄1~30號,25.0749564,121.5157277
612,自行車竊盜,2016-08-26,22,24,臺北市中山區松江路91~120號,25.0496362,121.533209
613,自行車竊盜,2016-08-27,16,18,臺北市萬華區成都路漢中街口,25.0420139,121.5068592
614,自行車竊盜,2016-08-27,18,20,臺北市大安區光武里忠孝東路4段101巷1~30號,25.042162,121.5480922
615,自行車竊盜,2016-08-29,16,18,臺北市中山區北安路630巷9弄1~30號,25.083078,121.549491
616,自行車竊盜,2016-08-30,20,22,臺北市內湖區星雲街181~210號,25.0813405,121.5970783
617,自行車竊盜,2016-08-30,20,22,臺北市中正區板溪里羅斯福路2段91~120號,25.0252854,121.5240879
618,自行車竊盜,2016-09-01,02,04,臺北市北投區秀山里中和街502巷14弄1~30號,25.1475359,121.4945378
619,自行車竊盜,2016-09-01,06,08,臺北市文山區忠順里016鄰忠順街2段85巷1~30號,24.9862845,121.5651366
620,自行車竊盜,2016-09-02,04,06,臺北市中正區板溪里羅斯福路與南昌路2段口,25.0221117,121.526559
621,自行車竊盜,2016-09-02,10,12,臺北市北投區大同里光明路(捷運北投站腳踏車停車場),25.131841,121.498633
622,自行車竊盜,2016-09-04,18,20,臺北市信義區興隆里仁愛路4段481~510號,25.0378405,121.5575001
623,自行車竊盜,2016-09-04,18,20,臺北市北投區東華里東華街31段(石牌捷運站東華街腳踏車停車場),25.1144046,121.515609
624,自行車竊盜,2016-09-04,20,22,臺北市中正區黎明里(捷運臺大醫院站2號,25.0417873,121.5160523
625,自行車竊盜,2016-09-06,04,06,臺北市松山區八德路4段211~240號,25.0489669,121.564143
626,自行車竊盜,2016-09-07,10,12,臺北市萬華區西門站,25.0415168,121.5077921
627,自行車竊盜,2016-09-08,10,12,臺北市北投區致遠二路5巷1~30號,25.1142368,121.5119497
628,自行車竊盜,2016-09-10,04,06,臺北市大同區蓬萊里承德路(民權西路),25.0629867,121.5182325
629,自行車竊盜,2016-09-10,08,10,臺北市信義區六和里松仁路241~270號,25.0259408,121.5689295
630,自行車竊盜,2016-09-10,12,14,臺北市信義區永吉里松山路1~30號,25.046775,121.578002
631,自行車竊盜,2016-09-10,16,18,臺北市北投區開明里中和街241~270號,25.139521,121.501124
632,自行車竊盜,2016-09-14,08,10,臺北市中正區螢圃里廈門街71巷1~30號,25.0249507,121.5176137
633,自行車竊盜,2016-09-14,20,22,臺北市大安區龍生里和平東路2段61~90號,25.025782,121.5386125
634,自行車竊盜,2016-09-15,00,02,臺北市松山區八德路4段245巷56弄1~30號,25.0507126,121.563639
635,自行車竊盜,2016-09-15,20,22,臺北市大同區雙連里重慶北路2段151~180號,25.0583552,121.5138409
636,自行車竊盜,2016-09-18,14,16,臺北市文山區萬美里006鄰萬利街1~30號,24.999368,121.5667953
637,自行車竊盜,2016-09-18,20,22,臺北市大安區光信里仁愛路4段300巷31弄1~30號,25.0355766,121.5545778
638,自行車竊盜,2016-09-21,06,08,臺北市大安區龍泉里師大路1~30號,25.026164,121.5285658
639,自行車竊盜,2016-09-21,18,20,臺北市大安區龍門里新生南路2段1~30號,25.0310609,121.535552
640,自行車竊盜,2016-09-23,06,08,臺北市大安區龍圖里復興南路2段31~60號,25.0279362,121.5437345
641,自行車竊盜,2016-09-23,22,24,臺北市中正區新營里(中正紀念堂3號,25.0326494,121.5183115
642,自行車竊盜,2016-09-24,14,16,臺北市內湖區環山路1段91~120號,25.0863317,121.5692721
643,自行車竊盜,2016-09-29,18,20,臺北市大安區華聲里忠孝東路4段301~330號,25.041621,121.555208
644,自行車竊盜,2016-10-03,02,04,臺北市信義區六藝里9鄰永吉路180巷48弄1~30號,25.0441502,121.5711918
645,自行車竊盜,2016-10-03,12,14,臺北市中正區東門里徐州路((臺大醫院車道出入口旁人行道)),25.0409423,121.5207651
646,自行車竊盜,2016-10-03,16,18,臺北市士林區三玉里士東路200巷31~60號,25.1115922,121.5339014
647,自行車竊盜,2016-10-06,12,14,臺北市松山區南京東路5段(三民路口),25.051429,121.563858
648,自行車竊盜,2016-10-06,16,18,臺北市內湖區環山路2段61~90號,25.085054,121.573934
649,自行車竊盜,2016-10-09,14,16,臺北市大安區錦華里和平東路1段1~30號,25.027241,121.5229827
650,自行車竊盜,2016-10-09,18,20,臺北市大安區學府里羅斯福路4段1~30號,25.0173405,121.5397518
651,自行車竊盜,2016-10-10,06,08,臺北市北投區榮光里西安街(唭哩岸站1號,25.1144046,121.515609
652,自行車竊盜,2016-10-11,10,12,臺北市大安區車層里忠孝東路4段211~240號,25.0416789,121.5520933
653,自行車竊盜,2016-10-11,10,12,臺北市內湖區康寧路3段265巷31~60號,25.0664749,121.6124937
654,自行車竊盜,2016-10-13,16,18,臺北市士林區承德里中山北路5段61~90號,25.0836168,121.5255946
655,自行車竊盜,2016-10-14,14,16,臺北市大同區建功里中山捷運站4號,25.052685,121.520391
656,自行車竊盜,2016-10-14,20,22,臺北市萬華區長順街99巷1~30號,25.0318916,121.4900161
657,自行車竊盜,2016-10-15,00,02,臺北市大安區學府里長興街31~60號,25.0168137,121.5452052
658,自行車竊盜,2016-10-17,14,16,臺北市信義區四育里松隆路151~180號,25.0472564,121.5723837
659,自行車竊盜,2016-10-17,14,16,臺北市信義區四育里松隆路151~180號,25.0472564,121.5723837
660,自行車竊盜,2016-10-19,18,20,臺北市萬華區環河南路2段50巷1~30號,25.037769,121.4961363
661,自行車竊盜,2016-10-21,18,20,臺北市大安區龍門里建國南路2段241~270號,25.0254926,121.5379898
662,自行車竊盜,2016-10-22,00,02,臺北市信義區信義路5段150巷271~300號,25.0275394,121.5689667
663,自行車竊盜,2016-10-22,08,10,臺北市士林區三玉里天母東路121~150號,25.1184156,121.5380739
664,自行車竊盜,2016-10-22,10,12,臺北市北投區大同里光明路1~30號,25.131841,121.498633
665,自行車竊盜,2016-10-22,16,18,臺北市文山區木柵里030鄰木柵路3段91~120號,24.988336,121.564905
666,自行車竊盜,2016-10-22,16,18,臺北市文山區木柵里030鄰木柵路3段91~120號,24.988336,121.564905
667,自行車竊盜,2016-10-22,18,20,臺北市中正區螢圃里廈門街31~60號,25.0262158,121.5178568
668,自行車竊盜,2016-10-23,12,14,臺北市北投區吉利里實踐街61~90號,25.1153574,121.5097836
669,自行車竊盜,2016-10-23,20,22,臺北市中正區新營里金華街1~30號,25.0316235,121.5205049
670,自行車竊盜,2016-10-24,20,22,臺北市南港區三重里(捷運南港展覽館站5號,25.0548748,121.6168358
671,自行車竊盜,2016-10-25,06,08,臺北市文山區萬有里景興路10巷1~30號,24.9979053,121.544344
672,自行車竊盜,2016-10-25,14,16,臺北市北投區大同里光明路1~30號,25.131841,121.498633
673,自行車竊盜,2016-10-25,14,16,臺北市北投區大同里光明路1~30號,25.131841,121.498633
674,自行車竊盜,2016-10-26,22,24,臺北市信義區三犁里信義路5段(象山捷運站2號,25.0330304,121.5627598
675,自行車竊盜,2016-10-27,02,04,臺北市文山區景華里景興路42巷2弄,24.9974551,121.5444354
676,自行車竊盜,2016-10-27,16,18,臺北市文山區萬年里汀州路4段1~30號,25.0103602,121.5367865
677,自行車竊盜,2016-10-28,10,12,臺北市北投區大同里北投路1段(北投捷運站停車場),25.1317795,121.4986418
678,自行車竊盜,2016-10-28,10,12,臺北市北投區榮光里石牌路1段181~210號,25.114971,121.5145744
679,自行車竊盜,2016-10-29,12,14,臺北市士林區承德里中山北路5段61~90號,25.0836168,121.5255946
680,自行車竊盜,2016-10-29,20,22,臺北市大安區龍門里捷運大安森林公園站5號,25.0335283,121.5353131
681,自行車竊盜,2016-10-30,16,18,臺北市文山區萬年里汀州路4段1~30號,25.0103602,121.5367865
682,自行車竊盜,2016-10-31,08,10,臺北市文山區萬年里汀州路4段61~90號,25.0086753,121.5372113
683,自行車竊盜,2016-10-31,08,10,臺北市大同區南芳里迪化街1段331~360號,25.0625579,121.5093696
684,自行車竊盜,2016-10-31,10,12,臺北市北投區開明里復興四路61~90號,25.143458,121.501544
685,自行車竊盜,2016-10-31,20,22,臺北市大安區龍陣里復興南路2段148巷1~30號,25.0285457,121.5419836
686,自行車竊盜,2016-11-01,12,14,臺北市文山區萬祥里羅斯福路5段181~210號,25.002858,121.538912
687,自行車竊盜,2016-11-01,16,18,臺北市北投區一德里大度路3段296巷31~60號,25.124188,121.4666667
688,自行車竊盜,2016-11-01,18,20,臺北市文山區忠順里002鄰興隆路4段121~150號,24.9857327,121.5614379
689,自行車竊盜,2016-11-02,00,02,臺北市內湖區南京東路6段241~270號,25.0558146,121.5786358
690,自行車竊盜,2016-11-02,00,02,臺北市信義區三張里莊敬路423巷7弄,25.0285939,121.5667469
691,自行車竊盜,2016-11-02,08,10,臺北市北投區大同里光明路1~30號,25.131841,121.498633
692,自行車竊盜,2016-11-02,16,18,臺北市大同區光能里雙連捷運站1號,25.0577788,121.5206671
693,自行車竊盜,2016-11-05,08,10,臺北市大安區虎嘯里敦化南路2段181~210號,25.0236951,121.5483374
694,自行車竊盜,2016-11-06,08,10,臺北市士林區忠誠里德行東路104巷9弄1~30號,25.1068508,121.5287728
695,自行車竊盜,2016-11-06,12,14,臺北市松山區光復南路66巷61~90號,25.0451236,121.5557623
696,自行車竊盜,2016-11-06,14,16,臺北市大同區建功里建成國中正門口,25.0516308,121.5186507
697,自行車竊盜,2016-11-07,12,14,臺北市萬華區桂林路31~60號,25.0380141,121.5045577
698,自行車竊盜,2016-11-09,00,02,臺北市大安區通安里5鄰文昌街151~180號,25.032933,121.5493201
699,自行車竊盜,2016-11-10,14,16,臺北市大安區龍門里信義路3段91~120號,25.033877,121.533515
700,自行車竊盜,2016-11-12,08,10,臺北市中正區建國里中山南路1~30號,25.0405611,121.5190036
701,自行車竊盜,2016-11-12,10,12,臺北市大安區新龍里建國南路2段121~150號,25.029612,121.53832
702,自行車竊盜,2016-11-13,12,14,臺北市大安區龍門里信義路3段91~120號,25.033877,121.533515
703,自行車竊盜,2016-11-14,10,12,臺北市文山區順興里018鄰恆光街17巷1~30號,24.9839937,121.5670673
704,自行車竊盜,2016-11-14,10,12,臺北市文山區樟文里007鄰木新路3段232巷1~30號,24.9813087,121.5591282
705,自行車竊盜,2016-11-15,12,14,臺北市文山區景行里景興路42巷2弄,24.9974551,121.5444354
706,自行車竊盜,2016-11-16,04,06,臺北市大安區仁慈里仁愛路4段8巷1~30號,25.0364327,121.5443401
707,自行車竊盜,2016-11-16,08,10,臺北市文山區景行里羅斯福路6段401巷(旁),24.9911815,121.5419957
708,自行車竊盜,2016-11-16,14,16,臺北市大安區新龍里建國南路2段121~150號,25.029612,121.53832
709,自行車竊盜,2016-11-17,04,06,臺北市大安區敦安里仁愛路4段122巷1~30號,25.0354549,121.5502591
710,自行車竊盜,2016-11-18,20,22,臺北市北投區清江里中央南路1段181~210號,25.128532,121.501093
711,自行車竊盜,2016-11-19,12,14,臺北市文山區興光里興隆路3段115巷(內),24.9994093,121.5580505
712,自行車竊盜,2016-11-19,14,16,臺北市大同區老師里環河北路2段361~390號,25.0773599,121.509027
713,自行車竊盜,2016-11-19,14,16,臺北市文山區興家里13鄰興隆路3段211~240號,25.000887,121.555
714,自行車竊盜,2016-11-19,18,20,臺北市大安區龍雲里大安路2段61~90號,25.0309894,121.5460728
715,自行車竊盜,2016-11-20,10,12,臺北市信義區信義路5段(運山捷運站2號,25.0330304,121.5627598
716,自行車竊盜,2016-11-20,10,12,臺北市中正區文北里杭州南路1段131巷1~30號,25.0362613,121.5261689
717,自行車竊盜,2016-11-20,16,18,臺北市南港區南港里市民大道8段((南港火車站天橋下)),25.0526844,121.6068835
718,自行車竊盜,2016-11-23,04,06,臺北市信義區中興里信義路4段391~420號,25.0332999,121.558381
719,自行車竊盜,2016-11-25,22,24,臺北市信義區廣居里忠孝東路5段421~450號,25.0409267,121.5754534
720,自行車竊盜,2016-11-26,08,10,臺北市士林區承德里18鄰基河路1~30號,25.0829685,121.5242187
721,自行車竊盜,2016-11-26,18,20,臺北市文山區萬隆里羅斯福路5段211~240號,25.007887,121.538523
722,自行車竊盜,2016-11-27,10,12,臺北市北投區大同里光明路1~30號,25.131841,121.498633
723,自行車竊盜,2016-11-28,14,16,臺北市萬華區西門捷運站六號,25.0415168,121.5077921
724,自行車竊盜,2016-11-29,20,22,臺北市大安區龍生里瑞安街135巷1~30號,25.0264262,121.5414822
725,自行車竊盜,2016-11-30,04,06,臺北市萬華區環河南路2段250巷33弄1~30號,25.033962,121.489811
726,自行車竊盜,2016-11-30,12,14,臺北市中正區南門里愛國西路與博愛路口,25.0356186,121.5108002
727,自行車竊盜,2016-12-03,20,22,臺北市松山區三民路74巷1~30號,25.0558496,121.5638707
728,自行車竊盜,2016-12-05,06,08,臺北市大安區學府里公館捷運站3號,25.01491,121.53422
729,自行車竊盜,2016-12-07,14,16,臺北市松山區民生東路5段1~30號,25.0593151,121.5629083
730,自行車竊盜,2016-12-09,06,08,臺北市松山區民生東路5段151~180號,25.059107,121.5621851
731,自行車竊盜,2016-12-09,10,12,臺北市中山區中山北路3段31~60號,25.0657089,121.522573
732,自行車竊盜,2016-12-09,10,12,臺北市中山區松江路151~180號,25.0554652,121.5332848
733,自行車竊盜,2016-12-09,14,16,臺北市萬華區西園路1段241~270號,25.0345519,121.498937
734,自行車竊盜,2016-12-12,12,14,臺北市信義區永吉路187巷1~30號,25.04701,121.5728625
735,自行車竊盜,2016-12-14,22,24,臺北市大安區錦華里和平東路1段55巷,25.0270634,121.5246465
736,自行車竊盜,2016-12-15,08,10,臺北市信義區四育里虎林街1~30號,25.0465511,121.5771638
737,自行車竊盜,2016-12-15,18,20,臺北市大安區仁慈里仁愛路4段1~30號,25.0382468,121.5440818
738,自行車竊盜,2016-12-16,18,20,臺北市信義區安康里松德路168巷1~30號,25.0366546,121.5722328
739,自行車竊盜,2016-12-18,14,16,臺北市信義區雙和里吳興街260巷(底台北醫學院口腔醫療大樓側門人行道上),25.0270409,121.5631091
740,自行車竊盜,2016-12-19,10,12,臺北市大同區建明里長安西路78巷1弄1~30號,25.0498953,121.5195238
741,自行車竊盜,2016-12-20,14,16,臺北市信義區中興里信義路4段361~390號,25.0331581,121.5572054
742,自行車竊盜,2016-12-21,18,20,臺北市松山區延壽街391~420號,25.0565036,121.5575543
743,自行車竊盜,2016-12-23,22,24,臺北市信義區長春里松山路336巷1~30號,25.0416717,121.5775055
744,自行車竊盜,2016-12-24,08,10,臺北市信義區象山捷運站1號,25.0328146,121.5700821
745,自行車竊盜,2016-12-24,10,12,臺北市松山區光復北路181~210號,25.0585926,121.555337
746,自行車竊盜,2016-12-24,22,24,臺北市松山區健康路325巷18弄31~60號,25.0561826,121.5684868
747,自行車竊盜,2016-12-24,22,24,臺北市松山區延壽街91~120號,25.0572466,121.566636
748,自行車竊盜,2016-12-25,02,04,臺北市文山區木新里025鄰永安街48巷1~30號,24.9854771,121.56977
749,自行車竊盜,2016-12-25,02,04,臺北市大安區黎和里和平東路3段391~420號,25.0196996,121.5575849
750,自行車竊盜,2016-12-25,08,10,臺北市萬華區桂林路121~150號,25.0385744,121.5003317
751,自行車竊盜,2016-12-26,02,04,臺北市南港區中南里中南街151~180號,25.051477,121.615616
752,自行車竊盜,2016-12-26,04,06,臺北市文山區景慶里景福街\弄151~180號,24.995515,121.536606
753,自行車竊盜,2016-12-29,10,12,臺北市大同區隆和里大橋頭捷運站2號,25.0630909,121.5135996
754,自行車竊盜,2016-12-30,14,16,臺北市文山區景美里羅斯福路6段301~330號,24.9941611,121.5415433
755,自行車竊盜,2016-12-30,14,16,臺北市文山區景美里羅斯福路6段271~300號,24.9947989,121.541405
756,自行車竊盜,2017-01-01,10,12,臺北市信義區六合里松仁路240巷1~30號,25.0243196,121.5688375
757,自行車竊盜,2017-01-03,18,20,臺北市中山區圓山捷運站2號,25.0696122,121.5201843
758,自行車竊盜,2017-01-05,20,22,臺北市內湖區東湖國中(內湖區康樂街151巷內)旁人行,25.0725594,121.6201035
759,自行車竊盜,2017-01-06,16,18,臺北市文山區木柵里029鄰木柵路3段91~120號,24.9885595,121.5655534
760,自行車竊盜,2017-01-07,04,06,臺北市大安區龍泉里和平東路1段181~210號,25.0264466,121.5328981
761,自行車竊盜,2017-01-07,22,24,臺北市中山區天祥路60巷1~30號,25.0622552,121.5205207
762,自行車竊盜,2017-01-08,02,04,臺北市中山區玉門街1~30號,25.0716662,121.5221636
763,自行車竊盜,2017-01-08,10,12,臺北市北投區福興里自強街61~90號,25.1106951,121.5139324
764,自行車竊盜,2017-01-08,18,20,臺北市中正區徐州路,25.0410038,121.5222375
765,自行車竊盜,2017-01-10,20,22,臺北市大安區住安里信義路4段1~30號,25.033623,121.5439372
766,自行車竊盜,2017-01-12,04,06,臺北市大安區仁慈里復興南路1段279巷1~30號,25.0356521,121.5456028
767,自行車竊盜,2017-01-16,06,08,臺北市大安區錦泰里金華街102巷,25.0303079,121.5256939
768,自行車竊盜,2017-01-16,08,10,臺北市士林區德華里福國路61~90號,25.1017967,121.5235298
769,自行車竊盜,2017-01-17,12,14,臺北市文山區萬和里溪洲街(萬隆街口),25.0043711,121.5354033
770,自行車竊盜,2017-01-17,12,14,臺北市大同區至聖里承德路3段241~270號,25.0648588,121.518077
771,自行車竊盜,2017-01-17,12,14,臺北市文山區萬年里汀州路4段105巷,25.0064435,121.5374158
772,自行車竊盜,2017-01-18,06,08,臺北市大安區全安里安和路2段211~240號,25.0261029,121.550246
773,自行車竊盜,2017-01-18,08,10,臺北市大安區芳和里基隆路2段291巷,25.0209172,121.5499103
774,自行車竊盜,2017-01-19,18,20,臺北市大安區華聲里光復南路72巷61~90號,25.0444208,121.555613
775,自行車竊盜,2017-01-21,08,10,臺北市北投區稻香里中央北路2段271~300號,25.138384,121.490704
776,自行車竊盜,2017-01-22,08,10,臺北市信義區三犁里信義路5段(象山捷運站2號,25.0330304,121.5627598
777,自行車竊盜,2017-01-23,08,10,臺北市大同區大有里民樂街151~180號,25.0585722,121.5106745
778,自行車竊盜,2017-01-23,16,18,臺北市北投區大同里清江路61~90號,25.1305028,121.5019761
779,自行車竊盜,2017-01-23,16,18,臺北市內湖區內湖路1段360巷1~30號,25.081165,121.5704904
780,自行車竊盜,2017-01-24,14,16,臺北市文山區景慶里羅斯福路6段211~240號,24.996069,121.541338
781,自行車竊盜,2017-01-24,18,20,臺北市士林區德行里福國路61~90號,25.1017967,121.5235298
782,自行車竊盜,2017-01-25,08,10,臺北市大安區基隆路與和平東路口(六張犁捷運站出口前),25.0238086,121.5531523
783,自行車竊盜,2017-01-31,04,06,臺北市中山區新生北路2段68巷31~60號,25.0565319,121.5257015
784,自行車竊盜,2017-02-02,22,24,臺北市中山區龍江路370巷31~60號,25.0665249,121.539285
785,自行車竊盜,2017-02-03,14,16,臺北市文山區景華里景興路31~60號,24.9975659,121.544896
786,自行車竊盜,2017-02-05,14,16,臺北市文山區景華里景中街22巷(旁),24.9942506,121.5421746
787,自行車竊盜,2017-02-06,22,24,臺北市文山區萬隆里景隆街1~30號,25.0002723,121.540342
788,自行車竊盜,2017-02-07,10,12,臺北市中正區市民大道路3段1~30號,25.0447598,121.537509
789,自行車竊盜,2017-02-08,06,08,臺北市中山區安東街16巷31~60號,25.0454688,121.540087
790,自行車竊盜,2017-02-08,20,22,臺北市大安區古風里辛亥路1段91~120號,25.021836,121.530864
791,自行車竊盜,2017-02-09,06,08,臺北市文山區明義里016鄰興隆路4段107巷31~60號,24.9856569,121.561461
792,自行車竊盜,2017-02-11,12,14,臺北市中正區東門里中山南路1~30號,25.0405611,121.5190036
793,自行車竊盜,2017-02-12,08,10,臺北市大安區龍淵里29鄰和平東路2段96巷20弄1~30號,25.0222281,121.5399718
794,自行車竊盜,2017-02-12,14,16,臺北市文山區景慶里羅斯福路6段211~240號,24.996069,121.541338
795,自行車竊盜,2017-02-13,12,14,臺北市文山區景慶里景福街211~240號,24.9945469,121.538128
796,自行車竊盜,2017-02-14,16,18,臺北市大安區龍生里復興南路2段211~240號,25.0279362,121.5437345
797,自行車竊盜,2017-02-15,10,12,臺北市大安區永康里信義路2段151~180號,25.0333821,121.5323392
798,自行車竊盜,2017-02-15,20,22,臺北市文山區萬有里羅斯福路6段91~120號,24.9984389,121.540649
799,自行車竊盜,2017-02-17,04,06,臺北市中正區水源里羅斯福路4段136巷6弄1~30號,25.0125207,121.5355794
800,自行車竊盜,2017-02-18,10,12,臺北市信義區永春里忠孝東路5段(後山埤捷運站1號,25.0411245,121.5766852
801,自行車竊盜,2017-02-18,10,12,臺北市南港區玉成公園旁(玉成公園旁),25.0425634,121.5848487
802,自行車竊盜,2017-02-18,10,12,臺北市松山區南京東路5段123巷8弄31~60號,25.0534959,121.562334
803,自行車竊盜,2017-02-18,18,20,臺北市大安區龍圖里建國南路2段(大安森林公園3號,25.0306463,121.5344712
804,自行車竊盜,2017-02-19,14,16,臺北市萬華區廣州街209巷1~30號,25.0367889,121.500286
805,自行車竊盜,2017-02-20,16,18,臺北市南港區三重里(捷運南港展覽館站5號,25.0548748,121.6168358
806,自行車竊盜,2017-02-21,02,04,臺北市信義區國業里虎林街222巷31~60號,25.036727,121.576631
807,自行車竊盜,2017-02-22,02,04,臺北市中正區螢圃里汀州路2段61~90號,25.0259532,121.5158269
808,自行車竊盜,2017-02-22,06,08,臺北市信義區黎平里富陽街21巷18弄1~30號,25.0228885,121.5572058
809,自行車竊盜,2017-02-22,08,10,臺北市大安區敦安里仁愛路4段122巷,25.0354549,121.5502591
810,自行車竊盜,2017-02-23,14,16,臺北市中正區南福里羅斯福路1段61~90號,25.0316586,121.5193834
811,自行車竊盜,2017-02-26,20,22,臺北市萬華區廣州街211~240號,25.0369892,121.4999073
812,自行車竊盜,2017-02-27,16,18,臺北市萬華區西門節運一號,25.041771,121.507035
813,自行車竊盜,2017-02-28,12,14,臺北市萬華區康定路74巷2弄1~30號,25.041992,121.502031
814,自行車竊盜,2017-02-28,20,22,臺北市大安區福住里新生南路2段31~60號,25.0305591,121.5338566
815,自行車竊盜,2017-03-01,08,10,臺北市中正區黎明里常德街1~30號,25.0416163,121.5171944
816,自行車竊盜,2017-03-01,12,14,臺北市南港區西新里向陽路31~60號,25.0536309,121.5948114
817,自行車竊盜,2017-03-01,20,22,臺北市文山區景行里羅斯福路6段401巷,24.9919553,121.5409055
818,自行車竊盜,2017-03-03,18,20,臺北市士林區福林里18鄰中正路235巷31~60號,25.0946666,121.5260632
819,自行車竊盜,2017-03-04,16,18,臺北市大同區大有里安西街21巷1~30號,25.059866,121.51017
820,自行車竊盜,2017-03-05,08,10,臺北市信義區五全里永吉路278巷57弄1~30號,25.0435055,121.574249
821,自行車竊盜,2017-03-07,00,02,臺北市大安區義安里信義路4段186巷,25.0325252,121.5515914
822,自行車竊盜,2017-03-08,00,02,臺北市南港區中南里市民大道8段541~570號,25.0529845,121.607317
823,自行車竊盜,2017-03-11,16,18,臺北市北投區石牌里西安街1段(明德捷運站旁腳踏車停車格),25.1144046,121.515609
824,自行車竊盜,2017-03-12,08,10,臺北市文山區政大里020鄰萬壽路61~90號,24.986827,121.5907701
825,自行車竊盜,2017-03-13,22,24,臺北市內湖區成功路2段115巷47弄31~60號,25.0646878,121.5929774
826,自行車竊盜,2017-03-14,14,16,臺北市萬華區康定路271~300號,25.034398,121.501266
827,自行車竊盜,2017-03-15,12,14,臺北市大安區龍泉里泰順街44巷1~30號,25.0237369,121.5311929
828,自行車竊盜,2017-03-15,16,18,臺北市大同區隆和里延平北路3段(景化街口),25.0650702,121.5110832
829,自行車竊盜,2017-03-16,10,12,臺北市南港區東明里南港路2段31~60號,25.053637,121.6009302
830,自行車竊盜,2017-03-17,12,14,臺北市大安區學府里羅斯福路4段1~30號,25.0173405,121.5397518
831,自行車竊盜,2017-03-22,14,16,臺北市大同區保安里重慶北路3段313巷1~30號,25.0741392,121.5142351
832,自行車竊盜,2017-03-22,20,22,臺北市北投區桃源里中央北路3段53巷1~30號,25.1378887,121.4855437
833,自行車竊盜,2017-03-25,18,20,臺北市大安區學府里羅斯福路4段113巷1~30號,25.011142,121.537693
834,自行車竊盜,2017-03-28,18,20,臺北市士林區義信里1鄰中山北路5段61~90號,25.084195,121.525818
835,自行車竊盜,2017-03-29,12,14,臺北市大同區保安里承德路3段(庫倫街),25.0718734,121.5186896
836,自行車竊盜,2017-04-01,02,04,臺北市中正區東門里仁愛路1段18巷,25.0385242,121.5220328
837,自行車竊盜,2017-04-01,20,22,臺北市北投區建民里文林北路31~60號,25.1044106,121.5184945
838,自行車竊盜,2017-04-02,08,10,臺北市大安區光明里信義路與杭州南路口,25.035628,121.5245695
839,自行車竊盜,2017-04-03,14,16,臺北市士林區承德里中山北路5段61~90號,25.0836168,121.5255946
840,自行車竊盜,2017-04-03,18,20,臺北市大安區黎和里和平東路3段346巷1~30號,25.0194368,121.5573828
841,自行車竊盜,2017-04-04,20,22,臺北市南港區中南里忠孝東路7段511~540號,25.0528671,121.6120499
842,自行車竊盜,2017-04-05,10,12,臺北市萬華區德昌街185巷1~30號,25.0233646,121.4945361
843,自行車竊盜,2017-04-06,14,16,臺北市中山區復興北路421~450號,25.0632342,121.5444647
844,自行車竊盜,2017-04-08,18,20,臺北市內湖區內湖路一段285巷口捷運西湖站旁自行車停,25.0821512,121.5672853
845,自行車竊盜,2017-04-08,20,22,臺北市北投區吉利里致遠二路113巷1~30號,25.1173166,121.5113442
846,自行車竊盜,2017-04-10,22,24,臺北市大安區德安里四維路1~30號,25.0338044,121.5478793
847,自行車竊盜,2017-04-13,16,18,臺北市大安區芳和里和平東路3段151~180號,25.0248484,121.5527662
848,自行車竊盜,2017-04-15,14,16,臺北市信義區安康里信義路(象山捷運站1號,25.0328146,121.5700821
849,自行車竊盜,2017-04-16,00,02,臺北市大安區龍坡里泰順街31~60號,25.024351,121.531462
850,自行車竊盜,2017-04-16,02,04,臺北市松山區八德路3段74巷14弄31~60號,25.0462782,121.552139
851,自行車竊盜,2017-04-20,18,20,臺北市中山區新生北路3段1~30號,25.0654106,121.5272432
852,自行車竊盜,2017-04-21,22,24,臺北市大安區芳和里樂業街108巷1~30號,25.0209474,121.5516434
853,自行車竊盜,2017-04-23,16,18,臺北市信義區松壽路1~30號,25.0363076,121.5661188
854,自行車竊盜,2017-04-24,14,16,臺北市大安區學府里羅斯福路4段1~30號,25.0173405,121.5397518
855,自行車竊盜,2017-04-27,06,08,臺北市大安區古莊里羅斯福路2段61~90號,25.0269318,121.5227544
856,自行車竊盜,2017-05-01,02,04,臺北市中山區復興北路421~450號,25.0632342,121.5444647
857,自行車竊盜,2017-05-02,08,10,臺北市北投區榮光里西安街1段313巷1~30號,25.1128276,121.5160782
858,自行車竊盜,2017-05-03,22,24,臺北市南港區西新里南港路3段106巷5弄1~30號,25.0541872,121.5893684
859,自行車竊盜,2017-05-04,00,02,臺北市南港區玉成里南港路3段121~150號,25.052869,121.587017
860,自行車竊盜,2017-05-04,02,04,臺北市南港區西新里昆陽街60巷1~30號,25.0525885,121.5925901
861,自行車竊盜,2017-05-04,10,12,臺北市大同區南京西路64段1~30號,25.0528835,121.5186519
862,自行車竊盜,2017-05-05,08,10,臺北市中正區富水里思源街1~30號,25.0133312,121.5306056
863,自行車竊盜,2017-05-05,10,12,臺北市大安區學府里羅斯福路4段1~30號,25.0173405,121.5397518
864,自行車竊盜,2017-05-05,16,18,臺北市中正區永昌里寧波西街181~210號,25.0266038,121.5107662
865,自行車竊盜,2017-05-06,02,04,臺北市松山區八德路2段410巷88弄1~30號,25.0462386,121.5466056
866,自行車竊盜,2017-05-06,16,18,臺北市中正區愛國里延平南路258巷(與和平西路口),25.0325133,121.5064329
867,自行車竊盜,2017-05-06,20,22,臺北市中正區幸福里(成功高中校門左側),25.0428346,121.5237182
868,自行車竊盜,2017-05-08,20,22,臺北市士林區蘭雅里德行東路109巷1~30號,25.1085239,121.5284459
869,自行車竊盜,2017-05-09,16,18,臺北市大安區龍圖里信義路3段91~120號,25.033877,121.533515
870,自行車竊盜,2017-05-10,12,14,臺北市松山區健康路325巷24弄1~30號,25.0566478,121.5674364
871,自行車竊盜,2017-05-12,02,04,臺北市松山區健康路325巷12弄1~30號,25.055654,121.5673329
872,自行車竊盜,2017-05-13,16,18,臺北市大同區延平里重慶北路2段(民生西路人行道),25.0569941,121.513696
873,自行車竊盜,2017-05-14,06,08,臺北市北投區福興里承德路7段91~120號,25.1114085,121.5108854
874,自行車竊盜,2017-05-14,16,18,臺北市文山區興得里25鄰興隆路3段211~240號,25.0006236,121.5552502
875,自行車竊盜,2017-05-14,20,22,臺北市文山區萬芳里005鄰萬安街1~30號,25.0020102,121.570644
876,自行車竊盜,2017-05-16,02,04,臺北市信義區永春里松山路287巷1~30號,25.042961,121.578271
877,自行車竊盜,2017-05-18,04,06,臺北市大同區至聖里承德路3段214巷1~30號,,
878,自行車竊盜,2017-05-18,08,10,臺北市內湖區康寧路3段189巷11弄1~30號,25.071795,121.611807
879,自行車竊盜,2017-05-21,06,08,臺北市信義區雅祥里基隆路1段1~30號,25.04633,121.56904
880,自行車竊盜,2017-05-22,06,08,臺北市士林區芝山里德行東路301~330號,25.1083939,121.5306546
881,自行車竊盜,2017-05-22,14,16,臺北市中正區南門里廣州街8巷(口(南門國中旁)),25.0343607,121.5089837
882,自行車竊盜,2017-05-26,10,12,臺北市北投區福興里自強街5段1~30號,25.1101668,121.5124183
883,自行車竊盜,2017-05-26,18,20,臺北市中正區文北里杭州南路1段71巷1~30號,25.0397176,121.5261387
884,自行車竊盜,2017-05-27,18,20,臺北市內湖區內湖路一段571~600號,25.0812138,121.5726866
885,自行車竊盜,2017-05-30,12,14,臺北市北投區關渡里大度路3段301巷121~150號,25.1201819,121.4658426
886,自行車竊盜,2017-06-04,14,16,臺北市大安區華聲里光復南路211~240號,25.0324593,121.5576926
887,自行車竊盜,2017-06-05,00,02,臺北市信義區永吉里松隆路(松山路口旁廣場),25.0487117,121.5737871
888,自行車竊盜,2017-06-05,14,16,臺北市內湖區成功路2段301~330號,25.0695344,121.5910336
889,自行車竊盜,2017-06-07,12,14,臺北市大安區龍生里建國南路2段211~240號,25.0267509,121.5380855
890,自行車竊盜,2017-06-08,02,04,臺北市內湖區安康路391~420號,25.0682217,121.6158747
891,自行車竊盜,2017-06-08,20,22,臺北市大安區群賢里復興南路2段(捷運科技大樓站外人行道),25.0260787,121.5434607
892,自行車竊盜,2017-06-09,10,12,臺北市北投區中央里中央北路1段91~120號,25.1344805,121.4995605
893,自行車竊盜,2017-06-10,10,12,臺北市文山區景興街201巷12弄1~30號,24.9932367,121.5444162
894,自行車竊盜,2017-06-10,12,14,臺北市北投區中央里中央南路1段91~120號,25.128532,121.501093
895,自行車竊盜,2017-06-11,08,10,臺北市大安區群賢里四維路228巷211~240號,25.0255611,121.5467478
896,自行車竊盜,2017-06-19,06,08,臺北市文山區萬有里景興路10巷1~30號,24.9979053,121.544344
897,自行車竊盜,2017-06-20,08,10,臺北市文山區樟文里002鄰忠順街1段26巷26弄1~30號,24.9839654,121.5593159
898,自行車竊盜,2017-06-21,06,08,臺北市萬華區東園街121~150號,25.0251026,121.4969992
899,自行車竊盜,2017-06-22,08,10,臺北市南港區舊莊里舊莊街1段290巷31~60號,25.0370335,121.6240441
900,自行車竊盜,2017-06-23,00,02,臺北市北投區大同里光明路1~30號,25.131841,121.498633
901,自行車竊盜,2017-06-23,12,14,臺北市大安區德安里敦化南路1段331~360號,25.0339806,121.5494438
902,自行車竊盜,2017-06-24,10,12,臺北市信義區四育里虎林街46巷1~30號,25.047126,121.5765989
903,自行車竊盜,2017-06-24,10,12,臺北市信義區五常里永吉路225巷32弄1~30號,25.0469618,121.5742464
904,自行車竊盜,2017-06-24,10,12,臺北市信義區四育里虎林街30巷1~30號,25.047818,121.576067
905,自行車竊盜,2017-06-25,02,04,臺北市大安區群賢里和平東路3段1~30號,25.024907,121.546758
906,自行車竊盜,2017-06-25,10,12,臺北市中山區安東街16巷1~30號,25.0455488,121.5420864
907,自行車竊盜,2017-06-25,10,12,臺北市北投區福興里自強街1~30號,25.1100792,121.5127828
908,自行車竊盜,2017-06-25,10,12,臺北市北投區八仙里承德路7段361~390號,25.1114085,121.5108854
909,自行車竊盜,2017-06-25,16,18,臺北市北投區大同里光明路1~30號,25.131841,121.498633
910,自行車竊盜,2017-06-25,18,20,臺北市大同區寧夏路119~1號,25.0603122,121.5146274
911,自行車竊盜,2017-06-25,20,22,臺北市中山區新生北路1段31~60號,25.0472733,121.5310045
912,自行車竊盜,2017-06-26,12,14,臺北市大安區羅斯福路4段1~30號,25.0173405,121.5397518
913,自行車竊盜,2017-06-27,14,16,臺北市松山區南京東路5段251巷46弄1~30號,25.0533191,121.5646085
914,自行車竊盜,2017-06-29,00,02,臺北市大同區朝陽里重慶北路2段16巷1~30號,25.05458,121.513832
915,自行車竊盜,2017-06-29,02,04,臺北市士林區蘭興里文林路661巷39弄1~30號,25.1002275,121.5214799
916,自行車竊盜,2017-06-29,06,08,臺北市萬華區和平西路3段121~150號,25.0353867,121.5000451
917,自行車竊盜,2017-06-29,16,18,臺北市萬華區莒光路121~150號,25.0310334,121.5011165
918,自行車竊盜,2017-06-29,22,24,臺北市南港區新富里富康街1巷16弄,25.0530287,121.6179055
919,自行車竊盜,2017-07-01,10,12,臺北市文山區興業里興隆路2段151~180號,25.0005695,121.5486148
920,自行車竊盜,2017-07-01,22,24,臺北市萬華區萬大路271~300號,25.0255913,121.5006625
921,自行車竊盜,2017-07-02,02,04,臺北市大安區龍圖里瑞安街208巷11弄1~30號,25.0286424,121.5406953
922,自行車竊盜,2017-07-02,16,18,臺北市北投區尊賢里尊賢街230巷1~30號,25.1161749,121.5083676
923,自行車竊盜,2017-07-03,04,06,臺北市大安區龍生里和平東路2段151~180號,25.0253916,121.5412489
924,自行車竊盜,2017-07-03,14,16,臺北市大安區羅斯福路4段1~30號,25.0173405,121.5397518
925,自行車竊盜,2017-07-04,06,08,臺北市中正區幸市里(忠孝東2段與新生南1段口(忠孝新生1號,25.04236,121.5329
926,自行車竊盜,2017-07-04,16,18,臺北市中正區幸市里忠孝東路二段﹑新生南路一段口((忠孝新生1號,25.04236,121.5329
927,自行車竊盜,2017-07-05,10,12,臺北市中正區建國里(捷運西門站2號,25.0415168,121.5077921
928,自行車竊盜,2017-07-05,12,14,臺北市大安區學府里羅斯福路4段1~30號,25.0173405,121.5397518
929,自行車竊盜,2017-07-05,20,22,臺北市文山區萬祥里羅斯福路5段269巷(口),25.001684,121.5390875
930,自行車竊盜,2017-07-07,16,18,臺北市萬華區環河南路2段148巷1~30號,25.0359703,121.494576
931,自行車竊盜,2017-07-08,10,12,臺北市中山區松江路301~330號,25.0611915,121.5334002
932,自行車竊盜,2017-07-08,10,12,臺北市中山區松江路301~330號,25.0611915,121.5334002
933,自行車竊盜,2017-07-08,10,12,臺北市松山區敦化北路222巷,25.0594312,121.5479162
934,自行車竊盜,2017-07-08,18,20,臺北市萬華區開封街2段61~90號,25.047079,121.505302
935,自行車竊盜,2017-07-10,08,10,臺北市士林區福德里中正路391~420號,25.094047,121.521435
936,自行車竊盜,2017-07-10,12,14,臺北市大同區民權里民權西路121~150號,25.0631052,121.517461
937,自行車竊盜,2017-07-12,10,12,臺北市大安區龍坡里溫州街18巷1~30號,25.024784,121.533217
938,自行車竊盜,2017-07-12,12,14,臺北市文山區景行里景興路181~210號,24.9927645,121.5444329
939,自行車竊盜,2017-07-13,10,12,臺北市中山區林森北路85巷31~60號,25.0496178,121.5260445
940,自行車竊盜,2017-07-15,02,04,臺北市北投區榮華里明德路208巷1~30號,25.1130643,121.5227629
941,自行車竊盜,2017-07-15,12,14,臺北市中山區合江街170巷31~60號,25.0608128,121.5380126
942,自行車竊盜,2017-07-16,14,16,臺北市中正區東門里信義路1段1~30號,25.033623,121.5439372
943,自行車竊盜,2017-07-18,06,08,臺北市南港區南港公園,25.0457002,121.5921317
944,自行車竊盜,2017-07-18,08,10,臺北市信義區富台里忠孝東路5段423巷4弄1~30號,25.0414749,121.575487
945,自行車竊盜,2017-07-18,12,14,臺北市中正區三愛里連雲街61~90號,25.0347945,121.5303374
946,自行車竊盜,2017-07-19,20,22,臺北市北投區裕民里懷德街55巷1~30號,25.1128851,121.5192456
947,自行車竊盜,2017-07-21,06,08,臺北市文山區興邦里3鄰興隆路2段151~180號,24.9998968,121.5482573
948,自行車竊盜,2017-07-22,08,10,臺北市松山區延壽街391~420號,25.0565036,121.5575543
949,自行車竊盜,2017-07-22,16,18,臺北市松山區民生東路5段36巷4弄1~30號,25.0578988,121.5571641
950,自行車竊盜,2017-07-24,04,06,臺北市大同區重慶北路2段(涼州街),25.0607873,121.5136312
951,自行車竊盜,2017-07-25,12,14,臺北市信義區五全里永吉路278巷37弄1~30號,25.0442439,121.5742544
952,自行車竊盜,2017-07-25,12,14,臺北市大安區龍安里金華街,25.0301443,121.5320795
953,自行車竊盜,2017-07-25,16,18,臺北市大安區德安里四維路31~60號,25.0353218,121.5482526
954,自行車竊盜,2017-07-26,08,10,臺北市北投區永明里石牌路1段181~210號,25.114971,121.5145744
955,自行車竊盜,2017-07-28,00,02,臺北市文山區明義里003鄰木柵路2段91~120號,24.988895,121.561248
956,自行車竊盜,2017-07-28,22,24,臺北市萬華區和德里西園路2段320巷57~1號,25.027628,121.4911231
957,自行車竊盜,2017-07-30,08,10,臺北市信義區四育里虎林街55巷1~30號,25.0475479,121.577271
958,自行車竊盜,2017-08-01,10,12,臺北市萬華區西園路2段320巷36弄1~30號,25.0265544,121.4918192
959,自行車竊盜,2017-08-02,04,06,臺北市南港區仁福里福德街361~390號,25.0395872,121.5891031
960,自行車竊盜,2017-08-02,06,08,臺北市大同區光能里承德路2段31~60號,25.0540267,121.5184286
961,自行車竊盜,2017-08-02,20,22,臺北市大安區龍生里瑞安街244巷31~60號,25.027569,121.5393194
962,自行車竊盜,2017-08-03,16,18,臺北市文山區景仁里羅斯福路6段151~180號,24.9974454,121.5409933
963,自行車竊盜,2017-08-03,18,20,臺北市士林區德行里福華路128巷1~30號,25.1031773,121.5246274
964,自行車竊盜,2017-08-05,18,20,臺北市中正區南福里羅斯福路2段61~90號,25.0269318,121.5227544
965,自行車竊盜,2017-08-08,00,02,臺北市北投區秀山里中和街502巷14弄1~30號,25.1475359,121.4945378
966,自行車竊盜,2017-08-08,10,12,臺北市松山區民權東路3段106巷3弄,25.0614542,121.5469632
967,自行車竊盜,2017-08-09,18,20,臺北市大同區建功里延平北路1段31~60號,25.0535045,121.5118997
968,自行車竊盜,2017-08-10,18,20,臺北市內湖區康寧路3段16巷口(葫洲捷運站出口處),25.0727,121.60716
969,自行車竊盜,2017-08-11,08,10,臺北市南港區東明里興華路91~120號,25.0557946,121.605967
970,自行車竊盜,2017-08-11,08,10,臺北市大安區住安里信義路4段74巷,25.0324789,121.5470405
971,自行車竊盜,2017-08-11,10,12,臺北市文山區木柵里010鄰木柵路3段1~30號,24.988422,121.564494
972,自行車竊盜,2017-08-11,12,14,臺北市北投區清江里三合街2段481~510號,25.1262794,121.5013501
973,自行車竊盜,2017-08-11,12,14,臺北市信義區忠孝東路5段421~450號,25.0409267,121.5754534
974,自行車竊盜,2017-08-12,16,18,臺北市萬華區青年路178巷1~30號,25.0207218,121.5027627
975,自行車竊盜,2017-08-12,22,24,臺北市南港區南港里市民大道8段361~390號,25.0529845,121.607317
976,自行車竊盜,2017-08-13,10,12,臺北市內湖區內湖捷運站2號,25.0835589,121.5942486
977,自行車竊盜,2017-08-14,08,10,臺北市文山區試院里005鄰和興路52巷7弄1~30號,24.9847134,121.5477607
978,自行車竊盜,2017-08-15,06,08,臺北市信義區黎忠里和平東路3段361~390號,25.0203424,121.5570866
979,自行車竊盜,2017-08-15,16,18,臺北市中正區建國里貴陽街1段((司法院旁人行道)),25.0380078,121.5118226
980,自行車竊盜,2017-08-16,14,16,臺北市信義區廣居里忠孝東路5段391~420號,25.0409308,121.5752816
981,自行車竊盜,2017-08-16,18,20,臺北市萬華區西園路2段320巷61~90號,25.0276785,121.4909723
982,自行車竊盜,2017-08-17,08,10,臺北市信義區忠孝東路5段451~480號,25.0411038,121.5762524
983,自行車竊盜,2017-08-17,10,12,臺北市大安區龍圖里信義路3段91~120號,25.033877,121.533515
984,自行車竊盜,2017-08-18,22,24,臺北市大安區正聲里仁愛路4段421~450號,25.0380599,121.5562751
985,自行車竊盜,2017-08-20,08,10,臺北市大安區義安里安和路2段74巷1~30號,25.0300351,121.5516129
986,自行車竊盜,2017-08-20,16,18,臺北市大安區福住里永康街37巷1~30號,25.03084,121.529927
987,自行車竊盜,2017-08-21,16,18,臺北市大安區學府里羅斯福路4段1~30號,25.0173405,121.5397518
988,自行車竊盜,2017-08-22,12,14,臺北市中正區南門里延平南路151~180號,25.0355509,121.5078987
989,自行車竊盜,2017-08-23,08,10,臺北市文山區華興里026鄰木柵路1段(光輝路口),24.9881605,121.555076
990,自行車竊盜,2017-08-23,12,14,臺北市北投區永明里石牌路2段91~120號,25.1172557,121.5163076
991,自行車竊盜,2017-08-24,22,24,臺北市松山區敦化北路1~30號,25.048607,121.550231
992,自行車竊盜,2017-08-27,00,02,臺北市大安區龍門里大安森林公園(捷運站5號,25.0335283,121.5353131
993,自行車竊盜,2017-08-28,02,04,臺北市內湖區行善路31~60號,25.0565543,121.5759473
994,自行車竊盜,2017-08-28,18,20,臺北市內湖區行善路25巷40弄1~30號,25.0565457,121.5776645
995,自行車竊盜,2017-08-30,08,10,臺北市信義區大道里大道路121~150號,25.0394401,121.5832237
996,自行車竊盜,2017-08-30,12,14,臺北市大安區福住里新生南路2段31~60號,25.0305591,121.5338566
997,自行車竊盜,2017-08-31,00,02,臺北市北投區福興里致遠一路2段121~150號,25.1134284,121.5124891
998,自行車竊盜,2017-09-01,00,02,臺北市文山區試院里030鄰木柵路1段76巷(內),24.9868568,121.5502953
999,自行車竊盜,2017-09-01,16,18,臺北市中正區永功里詔安街57巷1~30號,25.0257838,121.5113844
1000,自行車竊盜,2017-09-03,02,04,臺北市大安區和安里信義路3段147巷15弄1~30號,25.0351385,121.5421112
1001,自行車竊盜,2017-09-03,12,14,臺北市信義區興雅里忠孝東路5段31巷17弄1~30號,25.0413509,121.5658731
1002,自行車竊盜,2017-09-03,18,20,臺北市松山區復興北路427巷1~30號,25.0634274,121.5464334
1003,自行車竊盜,2017-09-04,08,10,臺北市南港區玉成里南港路3段149巷1~30號,25.0518478,121.5845215
1004,自行車竊盜,2017-09-05,08,10,臺北市信義區松勤街(象山捷運2號,25.0328146,121.5700821
1005,自行車竊盜,2017-09-06,02,04,臺北市南港區忠孝東路6段278巷5弄1~30號,25.048917,121.5895728
1006,自行車竊盜,2017-09-06,08,10,臺北市文山區萬祥里羅斯福路5段269巷1~30號,25.00114,121.53958
1007,自行車竊盜,2017-09-06,16,18,臺北市文山區景美里羅斯福路6段301~330號,24.9941611,121.5415433
1008,自行車竊盜,2017-09-06,16,18,臺北市松山區敦化北路331~360號,25.059274,121.550263
1009,自行車竊盜,2017-09-07,06,08,臺北市中正區頂東里羅斯福路2段151~180號,25.0257248,121.5231135
1010,自行車竊盜,2017-09-07,14,16,臺北市大同區(大橋頭捷運站2號,25.0630909,121.5135996
1011,自行車竊盜,2017-09-08,10,12,臺北市中正區新營里寧波東街24巷1~30號,25.0328427,121.5203048
1012,自行車竊盜,2017-09-09,02,04,臺北市中正區板溪里羅斯福路2段與和平西路1段西南角,25.0267156,121.521412
1013,自行車竊盜,2017-09-11,12,14,臺北市中正區水源里羅斯福路4段52巷1~30號,25.0147431,121.5334062
1014,自行車竊盜,2017-09-13,06,08,臺北市南港區三重里經貿二路1~30號,25.0564452,121.6179513
1015,自行車竊盜,2017-09-14,14,16,臺北市大同區玉泉里塔城街1~30號,25.0486358,121.5102795
1016,自行車竊盜,2017-09-15,00,02,臺北市大安區學府里羅斯福路4段1~30號,25.0173405,121.5397518
1017,自行車竊盜,2017-09-15,08,10,臺北市中正區幸福里忠孝東路1段,25.0455047,121.521878
1018,自行車竊盜,2017-09-17,00,02,臺北市大安區古風里雲和街31~60號,25.02385,121.527275
1019,自行車竊盜,2017-09-17,02,04,臺北市中正區水源里羅斯福路4段31~60號,25.0153822,121.5333492
1020,自行車竊盜,2017-09-17,12,14,臺北市文山區景華里羅斯福路6段301~330號,24.9941611,121.5415433
1021,自行車竊盜,2017-09-17,14,16,臺北市信義區長春里松信路151~180號,25.043323,121.572125
1022,自行車竊盜,2017-09-17,14,16,臺北市中山區松江路361~390號,25.0636359,121.533545
1023,自行車竊盜,2017-09-19,06,08,臺北市信義區三張里莊敬路325巷31~60號,25.0287448,121.5643248
1024,自行車竊盜,2017-09-19,06,08,臺北市信義區長春里松山路241~270號,25.044465,121.5779883
1025,自行車竊盜,2017-09-20,02,04,臺北市大安區華聲里延吉街129巷1~30號,25.0431723,121.5556102
1026,自行車竊盜,2017-09-20,06,08,臺北市北投區東華里東華街2段301~330號,25.1208763,121.5062194
1027,自行車竊盜,2017-09-20,12,14,臺北市信義區林口街24巷31~60號,25.0379367,121.5804559
1028,自行車竊盜,2017-09-20,20,22,臺北市中正區東門里仁愛路1段1~30號,25.0383782,121.5225897
1029,自行車竊盜,2017-09-22,06,08,臺北市信義區四育里松隆路151~180號,25.0472564,121.5723837
1030,自行車竊盜,2017-09-22,12,14,臺北市信義區廣居里忠孝東路5段236巷1~30號,25.040199,121.571674
1031,自行車竊盜,2017-09-22,14,16,臺北市大同區鄭州路143巷,25.0510401,121.5098741
1032,自行車竊盜,2017-09-23,20,22,臺北市北投區吉利里石牌路1段39巷131弄1~30號,25.1177692,121.5098858
1033,自行車竊盜,2017-09-24,02,04,臺北市中正區東門里信義路1段1~30號,25.033623,121.5439372
1034,自行車竊盜,2017-09-25,16,18,臺北市萬華區萬大路449巷10弄1~30號,25.0204662,121.4987109
1035,自行車竊盜,2017-09-25,16,18,臺北市松山區敦化北路331~360號,25.059274,121.550263
1036,自行車竊盜,2017-09-29,16,18,臺北市文山區景行里景美街,24.990786,121.5417549
1037,自行車竊盜,2017-09-29,22,24,臺北市大安區龍生里建國南路2段181~210號,25.0277904,121.5381037
1038,自行車竊盜,2017-09-30,16,18,臺北市大安區錦泰里金華街48巷1~30號,25.0303897,121.5230829
1039,自行車竊盜,2017-10-02,14,16,臺北市中正區板溪里羅斯福路2段91~120號,25.0252854,121.5240879
1040,自行車竊盜,2017-10-02,22,24,臺北市北投區文林里文林北路241~270號,25.1088476,121.5129882
1041,自行車竊盜,2017-10-04,18,20,臺北市萬華區西園路2段52巷1~30號,25.0318603,121.4968158
1042,自行車竊盜,2017-10-06,08,10,臺北市信義區興雅里松高路1~30號,25.039745,121.5642046
1043,自行車竊盜,2017-10-06,16,18,臺北市中山區復興北路380巷8弄內,25.0610035,121.5435702
1044,自行車竊盜,2017-10-07,10,12,臺北市中正區林興里羅斯福路3段121~150號,25.0221362,121.5269189
1045,自行車竊盜,2017-10-10,08,10,臺北市文山區樟腳里010鄰木新路3段91~120號,24.982504,121.5647239
1046,自行車竊盜,2017-10-10,18,20,臺北市大安區德安里四維路66巷,25.0347219,121.5476107
1047,自行車竊盜,2017-10-11,12,14,臺北市松山區市民大道6段(松山火車站北側人行道),25.049284,121.5782834
1048,自行車竊盜,2017-10-11,20,22,臺北市中正區黎明里中山南路2巷(7~11旁停車場),25.0482003,121.5192208
1049,自行車竊盜,2017-10-12,02,04,臺北市大安區光明里信義路2段86巷1~30號,25.0339129,121.525885
1050,自行車竊盜,2017-10-13,00,02,臺北市中正區龍興里三元街151~180號,25.0281205,121.5116795
1051,自行車竊盜,2017-10-15,10,12,臺北市松山區寶清街61~90號,25.0514479,121.5683415
1052,自行車竊盜,2017-10-15,16,18,臺北市北投區奇岩捷運站旁,25.1255353,121.5011094
1053,自行車竊盜,2017-10-16,06,08,臺北市中山區建國北路3段31~60號,25.0637659,121.5372796
1054,自行車竊盜,2017-10-17,10,12,臺北市大安區義村里忠孝東路3段248巷31~60號,25.0401128,121.5412987
1055,自行車竊盜,2017-10-18,16,18,臺北市信義區四育里市民大道6段(虎林街口),25.0484559,121.5755784
1056,自行車竊盜,2017-10-19,10,12,臺北市松山區八德路4段631~660號,25.0501938,121.5750038
1057,自行車竊盜,2017-10-19,12,14,臺北市大安區仁慈里大安路1段151~180號,25.0376055,121.546201
1058,自行車竊盜,2017-10-22,22,24,臺北市中正區文北里臨沂街31~60號,25.0399975,121.5299305
1059,自行車竊盜,2017-10-23,06,08,臺北市大安區住安里大安路2段53巷,25.0312746,121.5466757
1060,自行車竊盜,2017-10-23,22,24,臺北市南港區鴻福里玉成街201巷8弄1~30號,25.044694,121.5858158
1061,自行車竊盜,2017-10-25,02,04,臺北市大同區國慶里民族西路211~240號,25.0687771,121.5142311
1062,自行車竊盜,2017-10-27,00,02,臺北市北投區榮光里西安街1段211~240號,25.1105594,121.5179627
1063,自行車竊盜,2017-10-28,14,16,臺北市中山區錦西街1~30號,25.0604494,121.5221763
1064,自行車竊盜,2017-10-30,10,12,臺北市文山區景華里三福街1~30號,24.9961299,121.541519
1065,自行車竊盜,2017-10-31,10,12,臺北市信義區三張里吳興街281巷31~60號,25.0266235,121.565111
1066,自行車竊盜,2017-11-02,08,10,臺北市信義區新仁里忠孝東路4段553巷6弄1~30號,25.042382,121.562923
1067,自行車竊盜,2017-11-03,06,08,臺北市萬華區廣州街31~60號,25.036344,121.505871
1068,自行車竊盜,2017-11-03,18,20,臺北市大安區通安里臨江街118巷3弄1~30號,25.0300342,121.5539253
1069,自行車竊盜,2017-11-06,20,22,臺北市士林區葫蘆里葫蘆街163巷,25.0839578,121.508928
1070,自行車竊盜,2017-11-07,04,06,臺北市士林區聖山里忠誠路1段151~180號,25.1066166,121.5300736
1071,自行車竊盜,2017-11-07,12,14,臺北市中山區南京東路3段151~180號,25.0522239,121.5416745
1072,自行車竊盜,2017-11-08,20,22,臺北市中山區錦州街211~240號,25.0604203,121.5320452
1073,自行車竊盜,2017-11-09,14,16,臺北市中正區梅花里市民大道3段1~30號,25.0445925,121.5432393
1074,自行車竊盜,2017-11-09,18,20,臺北市內湖區成功路4段167巷(內湖捷運站2號,25.0835589,121.5942486
1075,自行車竊盜,2017-11-10,10,12,臺北市中山區復興北路430巷1~30號,25.0634804,121.543251
1076,自行車竊盜,2017-11-12,16,18,臺北市中正區常德街(公園路),25.0412224,121.5160593
1077,自行車竊盜,2017-11-16,16,18,臺北市松山區八德路3段151~180號,25.0484306,121.5576098
1078,自行車竊盜,2017-11-18,16,18,臺北市中正區水源里羅斯福路4段121~150號,25.0108689,121.5374898
1079,自行車竊盜,2017-11-19,16,18,臺北市大安區龍門里大安森林公園捷運站2號,25.0335283,121.5353131
1080,自行車竊盜,2017-11-21,14,16,臺北市北投區智仁里中和街493巷1~30號,25.144355,121.494376
1081,自行車竊盜,2017-11-21,22,24,臺北市文山區興豐里興隆路2段95巷,24.9993116,121.5471674
1082,自行車竊盜,2017-11-22,00,02,臺北市大安區住安里信義路4段1~30號,25.033623,121.5439372
1083,自行車竊盜,2017-11-23,06,08,臺北市南港區西新里向陽路1~30號,25.055759,121.5930424
1084,自行車竊盜,2017-11-24,20,22,臺北市北投區大同里光明路1~30號,25.131841,121.498633
1085,自行車竊盜,2017-11-26,08,10,臺北市大同區長安西路52巷,25.0499786,121.5199283
1086,自行車竊盜,2017-11-27,12,14,臺北市北投區永明里立農街2段(與義理街口),25.1185986,121.5163464
1087,自行車竊盜,2017-11-27,20,22,臺北市萬華區(康定路與桂林路口),25.040565,121.502426
1088,自行車竊盜,2017-11-29,06,08,臺北市大安區龍門里新生南路2段1~30號,25.0310609,121.535552
1089,自行車竊盜,2017-12-02,08,10,臺北市大安區龍安里新生南路2段61~90號,25.0305591,121.5338566
1090,自行車竊盜,2017-12-02,20,22,臺北市中正區幸市里濟南路2段(家樂福便利購旁的防火巷),25.0403018,121.5309297
1091,自行車竊盜,2017-12-03,14,16,臺北市大安區龍門里新生南路與金華街口(大安森林公園5號,25.029473,121.5357054
1092,自行車竊盜,2017-12-03,16,18,臺北市文山區興邦里興隆路2段151~180號,25.0005695,121.5486148
1093,自行車竊盜,2017-12-03,18,20,臺北市文山區景行里景文街91~120號,24.991033,121.541392
1094,自行車竊盜,2017-12-05,06,08,臺北市大同區民族西路76巷39弄,25.0674834,121.5175708
1095,自行車竊盜,2017-12-06,06,08,臺北市信義區永吉里松隆路331~360號,25.048531,121.579505
1096,自行車竊盜,2017-12-06,12,14,臺北市士林區社子里16鄰延平北路6段91~120號,25.0872929,121.5091998
1097,自行車竊盜,2017-12-07,10,12,臺北市中正區建國里重慶南路1段121~150號,25.041934,121.513307
1098,自行車竊盜,2017-12-10,18,20,臺北市中正區水源里汀州路3段104巷((自來水公園)),25.0125167,121.5300056
1099,自行車竊盜,2017-12-10,18,20,臺北市士林區德行里福華路164巷1~30號,25.1043702,121.5226295
1100,自行車竊盜,2017-12-11,02,04,臺北市文山區興得里興隆路3段36巷16弄1~30號,24.9995538,121.5550524
1101,自行車竊盜,2017-12-11,12,14,臺北市北投區石牌里15鄰西安街1段151~180號,25.1076389,121.5199425
1102,自行車竊盜,2017-12-13,02,04,臺北市萬華區成都路61~90號,25.0429189,121.5058363
1103,自行車竊盜,2017-12-15,00,02,臺北市大安區新生南路3段61~90號,25.025411,121.534527
1104,自行車竊盜,2017-12-15,16,18,臺北市大同區寧夏路一帶,25.055535,121.5152683
1105,自行車竊盜,2017-12-15,16,18,臺北市大安區龍圖里13鄰瑞安街154巷31~60號,25.0295361,121.5415336
1106,自行車竊盜,2017-12-15,16,18,臺北市信義區富台里忠孝東路5段271~300號,25.0411768,121.5712093
1107,自行車竊盜,2017-12-16,06,08,臺北市大同區環河北路1段271~300號,25.058436,121.50861
1108,自行車竊盜,2017-12-16,12,14,臺北市士林區承德里18鄰基河路1~30號,25.0829685,121.5242187
1109,自行車竊盜,2017-12-16,14,16,臺北市大安區福住里信義路與新生南路口,25.032435,121.5349054
1110,自行車竊盜,2017-12-16,18,20,臺北市松山區撫遠街389巷1~30號,25.0650493,121.5659252
1111,自行車竊盜,2017-12-16,20,22,臺北市松山區?民路31~60號,25.0541591,121.5638621
1112,自行車竊盜,2017-12-17,08,10,臺北市士林區福德里福德路1~30號,25.093535,121.52623
1113,自行車竊盜,2017-12-19,02,04,臺北市大同區昌吉街61巷35弄1~30號,25.066781,121.5150424
1114,自行車竊盜,2017-12-23,08,10,臺北市大安區群賢里復興南路2段151~180號,25.0279362,121.5437345
1115,自行車竊盜,2017-12-23,14,16,臺北市大安區龍安里10鄰青田街5巷1~30號,25.0285152,121.5324277
1116,自行車竊盜,2017-12-23,22,24,臺北市大安區忠孝新生捷運站5號,25.04236,121.5329
1117,自行車竊盜,2017-12-25,20,22,臺北市文山區興得里9鄰興隆路3段31~60號,24.9937028,121.5593941
1118,自行車竊盜,2017-12-26,22,24,臺北市大安區龍圖里信義路3段91~120號,25.033877,121.533515
1119,自行車竊盜,2017-12-26,22,24,臺北市萬華區長順街48巷1~30號,25.031782,121.4890405
1120,自行車竊盜,2017-12-27,08,10,臺北市信義區長春里松山路271~300號,25.043507,121.5780221
1121,自行車竊盜,2018-01-01,02,04,臺北市信義區廣居里忠孝東路5段372巷27弄1~30號,25.039768,121.574134
1122,自行車竊盜,2018-01-01,08,10,臺北市大同區南京西路25巷1~30號,25.0542025,121.5203301
1123,自行車竊盜,2018-01-02,22,24,臺北市文山區木柵里030鄰木柵路3段91~120號,24.988336,121.564905
1124,自行車竊盜,2018-01-04,00,02,臺北市大同區赤峰街1~30號,25.0533835,121.5190448
1125,自行車竊盜,2018-01-04,14,16,臺北市萬華區西寧南路1~30號,25.0379309,121.5065205
1126,自行車竊盜,2018-01-04,18,20,臺北市萬華區康定路361~390號,25.0331795,121.5005597
1127,自行車竊盜,2018-01-09,08,10,臺北市北投區林泉里泉源路1~30號,25.143344,121.518621
1128,自行車竊盜,2018-01-12,06,08,臺北市中正區南門里小南門捷運站2號,25.0356186,121.5108002
1129,自行車竊盜,2018-01-15,00,02,臺北市信義區大仁里福德街61~90號,25.0366982,121.5808064
1130,自行車竊盜,2018-01-18,18,20,臺北市內湖區環山路2段91~120號,25.0846755,121.5752573
1131,自行車竊盜,2018-01-18,20,22,臺北市中正區網溪里7鄰同安街80巷1~30號,25.022335,121.5200577
1132,自行車竊盜,2018-01-18,20,22,臺北市大同區民權西路245巷31~60號,25.0640274,121.5104604
1133,自行車竊盜,2018-01-20,06,08,臺北市松山區八德路3段1~30號,25.0484306,121.5576098
1134,自行車竊盜,2018-01-22,06,08,臺北市文山區興光里興隆路3段115巷,24.9996052,121.5586989
1135,自行車竊盜,2018-01-23,12,14,臺北市大同區赤峰街53巷1~30號,25.0562529,121.5197647
1136,自行車竊盜,2018-01-24,02,04,臺北市信義區莊敬路421~450號,25.027329,121.566508
1137,自行車竊盜,2018-01-25,10,12,臺北市信義區永春里忠孝東路5段743巷21弄1~30號,25.0435193,121.580161
1138,自行車竊盜,2018-01-27,02,04,臺北市大安區古風里師大路121~150號,25.022044,121.528399
1139,自行車竊盜,2018-01-28,02,04,臺北市內湖區港富里內湖路1段737巷41弄1~30號,25.0800427,121.5788984
1140,自行車竊盜,2018-01-31,20,22,臺北市大同區延平北路2段91~120號,25.0564276,121.5117212
1141,自行車竊盜,2018-02-02,12,14,臺北市大同區興城街61~90號,25.0592539,121.517575
1142,自行車竊盜,2018-02-06,12,14,臺北市中山區復興北路380巷6弄,25.0606847,121.5436431
1143,自行車竊盜,2018-02-06,12,14,臺北市信義區富台里忠孝東路5段271~300號,25.0411768,121.5712093
1144,自行車竊盜,2018-02-11,16,18,臺北市信義區永春里松山路287巷31~60號,25.0429118,121.5805369
1145,自行車竊盜,2018-02-12,16,18,臺北市文山區樟林里016鄰忠順街1段41巷3弄1~30號,24.9838983,121.5586576
1146,自行車竊盜,2018-02-14,02,04,臺北市中山區中山北路2段115巷1~30號,25.060757,121.524438
1147,自行車竊盜,2018-02-14,20,22,臺北市大安區學府里羅斯福路4段1~30號,25.0173405,121.5397518
1148,自行車竊盜,2018-02-15,10,12,臺北市中正區水源里思源街1~30號,25.0125167,121.5300056
1149,自行車竊盜,2018-02-16,02,04,臺北市松山區民生東路5段69巷29弄1~30號,25.0600303,121.5580276
1150,自行車竊盜,2018-02-16,02,04,臺北市松山區民生東路5段69巷21弄1~30號,25.0595952,121.5579278
1151,自行車竊盜,2018-02-17,04,06,臺北市中正區建國里博愛路151~180號,25.0352579,121.5109446
1152,自行車竊盜,2018-02-19,16,18,臺北市大安區龍門里辛亥路2段31~60號,25.0226641,121.5359125
1153,自行車竊盜,2018-02-21,00,02,臺北市萬華區峨嵋街1~30號,25.0262857,121.4970294
1154,自行車竊盜,2018-02-21,22,24,臺北市中正區羅斯福路2段,25.0270167,121.5225559
1155,自行車竊盜,2018-02-22,10,12,臺北市松山區光復北路85巷1~30號,25.0505653,121.5583225
1156,自行車竊盜,2018-02-25,20,22,臺北市大安區芳和里嘉興街363巷1~30號,25.0217182,121.5525778
1157,自行車竊盜,2018-03-01,02,04,臺北市松山區民生東路5段36巷4弄31~60號,25.0579829,121.5585603
1158,自行車竊盜,2018-03-02,00,02,臺北市大安區光武里大安路1段31巷31~60號,25.0439719,121.546059
1159,自行車竊盜,2018-03-03,08,10,臺北市內湖區內湖路3段143巷1~30號,25.0871679,121.5890489
1160,自行車竊盜,2018-03-07,06,08,臺北市北投區榮光里西安街1段(明德捷運站旁),25.1144046,121.515609
1161,自行車竊盜,2018-03-09,00,02,臺北市信義區忠孝東路5段481~510號,25.041004,121.577475
1162,自行車竊盜,2018-03-11,02,04,臺北市松山區南京東路5段291巷47弄1~30號,25.0537302,121.5663182
1163,自行車竊盜,2018-03-11,12,14,臺北市中山區雙城街10巷1~30號,25.0642289,121.5242889
1164,自行車竊盜,2018-03-12,20,22,臺北市中正區永功里和平西路2段70巷17弄31~60號,25.0278816,121.512296
1165,自行車竊盜,2018-03-14,00,02,臺北市信義區六藝里永吉路180巷70弄1~30號,25.0429787,121.571322
1166,自行車竊盜,2018-03-14,14,16,臺北市內湖區民權東路六段91~120號,25.0693177,121.5881411
1167,自行車竊盜,2018-03-15,00,02,臺北市信義區長春里永吉路278巷57弄1~30號,25.0435055,121.574249
1168,自行車竊盜,2018-03-18,00,02,臺北市南港區忠孝東路6段70巷21弄1~30號,25.0464592,121.5851684
1169,自行車竊盜,2018-03-18,02,04,臺北市信義區富台里忠孝東路5段(虎林街口),25.0484559,121.5755784
1170,自行車竊盜,2018-03-19,00,02,臺北市信義區雅祥里基隆路1段83巷1~30號,25.0465939,121.5707398
1171,自行車竊盜,2018-03-19,02,04,臺北市中正區文盛里羅斯福路3段211~240號,25.0199252,121.5291567
1172,自行車竊盜,2018-03-19,04,06,臺北市萬華區長順街99巷1~30號,25.0318916,121.4900161
1173,自行車竊盜,2018-03-19,04,06,臺北市萬華區長順街99巷1~30號,25.0318916,121.4900161
1174,自行車竊盜,2018-03-19,16,18,臺北市北投區裕民里明德路91~120號,25.1090387,121.5188432
1175,自行車竊盜,2018-03-19,22,24,臺北市信義區莊敬路423巷7弄1~30號,25.028425,121.566882
1176,自行車竊盜,2018-03-22,00,02,臺北市中山區農安街77巷9弄內,25.06631,121.529521
1177,自行車竊盜,2018-03-22,20,22,臺北市文山區試院里027鄰木柵路1段121~150號,24.988804,121.568612
1178,自行車竊盜,2018-03-24,00,02,臺北市大同區民族西路61~90號,25.0686777,121.5188181
1179,自行車竊盜,2018-03-24,06,08,臺北市信義區雙和里吳興街284巷1~30號,25.0262659,121.5642719
1180,自行車竊盜,2018-03-29,18,20,臺北市大安區學府里羅斯福路4段1~30號,25.0173405,121.5397518
1181,自行車竊盜,2018-03-29,18,20,臺北市信義區雙和里吳興街600巷53弄1~30號,25.0201932,121.5701506
1182,自行車竊盜,2018-03-29,22,24,臺北市大同區延平北路1段69巷1~30號,25.0514606,121.5124028
1183,自行車竊盜,2018-04-02,12,14,臺北市內湖區成功路4段167巷口,25.0827079,121.5954275
1184,自行車竊盜,2018-04-02,12,14,臺北市信義區富台里忠孝東路5段(永春捷運站5號,25.0408565,121.5760231
1185,自行車竊盜,2018-04-02,16,18,臺北市士林區三玉里13鄰忠誠路2段1~30號,25.1143142,121.5313676
1186,自行車竊盜,2018-04-03,00,02,臺北市大安區龍門里新生南路2段1~30號,25.0310609,121.535552
1187,自行車竊盜,2018-04-03,18,20,臺北市南港區成福路91~120號,25.0428404,121.5870804
1188,自行車竊盜,2018-04-07,16,18,臺北市中正區南門里重慶南路2段與南海路口的天橋下(靠中正第,25.0326319,121.5138591
1189,自行車竊盜,2018-04-08,14,16,臺北市內湖區民權東路6段296巷31~60號,25.072064,121.6063903
1190,自行車竊盜,2018-04-09,10,12,臺北市中山區新生北路2段133巷1~30號,25.0609472,121.5280138
1191,自行車竊盜,2018-04-09,14,16,臺北市大同區敦煌路88巷,25.0759028,121.5172625
1192,自行車竊盜,2018-04-10,02,04,臺北市大同區延平北路4段111巷,25.0713723,121.5108927
1193,自行車竊盜,2018-04-11,02,04,臺北市信義區五全里永吉路278巷47弄1~30號,25.0438891,121.5742483
1194,自行車竊盜,2018-04-11,20,22,臺北市信義區三張里吳興街281巷31~60號,25.0266235,121.565111
1195,自行車竊盜,2018-04-13,14,16,臺北市中正區南門里廣州街8巷,25.0346734,121.5082671
1196,自行車竊盜,2018-04-13,18,20,臺北市大同區(大橋頭捷運站2號,25.0630909,121.5135996
1197,自行車竊盜,2018-04-15,14,16,臺北市中山區中山北路2段91~120號,25.059308,121.523262
1198,自行車竊盜,2018-04-15,14,16,臺北市大同區寧夏路91~120號,25.0593761,121.5150174
1199,自行車竊盜,2018-04-15,18,20,臺北市大同區承德路3段208巷1~30號,25.0705388,121.517703
1200,自行車竊盜,2018-04-16,14,16,臺北市大同區民族西路252巷,25.0679084,121.5122529
1201,自行車竊盜,2018-04-18,14,16,臺北市大同區迪化街2段421~450號,25.0741278,121.5115034
1202,自行車竊盜,2018-04-19,16,18,臺北市大安區民炤里信義路3段31~60號,25.033086,121.541365
1203,自行車竊盜,2018-04-19,20,22,臺北市大同區寧夏路31~60號,25.0558329,121.5153674
1204,自行車竊盜,2018-04-21,10,12,臺北市內湖區港華街1~30號,25.0823766,121.577905
1205,自行車竊盜,2018-04-22,12,14,臺北市內湖區康寧路1段64巷1~30號,25.0800667,121.592214
1206,自行車竊盜,2018-04-22,18,20,臺北市信義區六藝里永吉路180巷16弄1~30號,25.045074,121.571387
1207,自行車竊盜,2018-04-24,00,02,臺北市萬華區萬大路137巷31~60號,25.0291828,121.5013609
1208,自行車竊盜,2018-04-25,00,02,臺北市大安區建安里忠孝東路4段147巷,25.0430922,121.5496649
1209,自行車竊盜,2018-04-27,00,02,臺北市大安區龍泉里泰順街26巷,25.0251349,121.5308842
1210,自行車竊盜,2018-04-28,12,14,臺北市內湖區康寧路1段151~180號,25.079304,121.594391
1211,自行車竊盜,2018-04-29,14,16,臺北市信義區興隆里忠孝東路5段(逸仙路口),25.041987,121.57351
1212,自行車竊盜,2018-04-30,22,24,臺北市大同區大龍街61~90號,25.0656235,121.5160564
1213,自行車竊盜,2018-05-01,00,02,臺北市中正區螢圃里25鄰和平西路1段121~150號,25.0270153,121.5211525
1214,自行車竊盜,2018-05-01,16,18,臺北市大安區龍生里和平東路與建國南路口,25.029025,121.5377204
1215,自行車竊盜,2018-05-03,14,16,臺北市萬華區內江街31~60號,25.0416585,121.5059805
1216,自行車竊盜,2018-05-05,00,02,臺北市士林區福佳里文昌路91~120號,25.096279,121.5209769
1217,自行車竊盜,2018-05-05,04,06,臺北市中山區渭水路3巷1~30號,25.0470356,121.5335145
1218,自行車竊盜,2018-05-05,04,06,臺北市中山區渭水路3巷1~30號,25.0470356,121.5335145
1219,自行車竊盜,2018-05-05,08,10,臺北市士林區天玉里天母西路1~30號,25.1185893,121.5295153
1220,自行車竊盜,2018-05-05,12,14,臺北市中山區敬業一路與樂群三路口的停車格,25.083987,121.55318
1221,自行車竊盜,2018-05-06,02,04,臺北市中山區新生北路2段29之1~30號,25.0539814,121.5277503
1222,自行車竊盜,2018-05-08,00,02,臺北市松山區三民路107巷1~30號,25.0576711,121.5620157
1223,自行車竊盜,2018-05-08,20,22,臺北市士林區蘭雅里中山北路6段271~300號,25.1099157,121.5252716
1224,自行車竊盜,2018-05-09,08,10,臺北市內湖區金湖路91~120號,25.081131,121.5976136
1225,自行車竊盜,2018-05-09,16,18,臺北市南港區東明街97巷與東明街口,25.0545587,121.6010975
1226,自行車竊盜,2018-05-11,16,18,臺北市南港區東新街151~180號,25.0461978,121.5913109
1227,自行車竊盜,2018-05-11,20,22,臺北市內湖區內湖路2段103巷119弄31~60號,25.083824,121.581124
1228,自行車竊盜,2018-05-12,02,04,臺北市中山區龍江路155巷1~30號,25.0543398,121.5407322
1229,自行車竊盜,2018-05-12,10,12,臺北市大安區虎嘯里2鄰敦化南路2段172巷1~30號,25.023891,121.548142
1230,自行車竊盜,2018-05-12,14,16,臺北市中山區中山國中捷運站前,25.06078,121.5442076
1231,自行車竊盜,2018-05-13,00,02,臺北市內湖區文湖街21巷94弄口,25.090024,121.560007
1232,自行車竊盜,2018-05-13,14,16,臺北市北投區吉慶里石牌路1段71巷3弄1~30號,25.1137724,121.511072
1233,自行車竊盜,2018-05-14,06,08,臺北市大安區黎元里臥龍街195巷31~60號,25.0187618,121.5533903
1234,自行車竊盜,2018-05-15,14,16,臺北市中正區三元街61~90號,25.0302885,121.507855
1235,自行車竊盜,2018-05-15,14,16,臺北市大安區龍門里建國南路2段241~270號,25.0254926,121.5379898
1236,自行車竊盜,2018-05-16,04,06,臺北市大同區酒泉街10巷,25.0700855,121.5197878
1237,自行車竊盜,2018-05-19,08,10,臺北市大同區重慶北路3段301~330號,25.0737727,121.5140355
1238,自行車竊盜,2018-05-19,18,20,臺北市中山區南京新生停車場南側,25.0521972,121.5354918
1239,自行車竊盜,2018-05-20,10,12,臺北市大同區鄭州路1~30號,25.0490715,121.5158146
1240,自行車竊盜,2018-05-21,00,02,臺北市信義區長春里松山路301~330號,25.042678,121.578054
1241,自行車竊盜,2018-05-23,02,04,臺北市大安區龍生里建國南路2段211~240號,25.0267509,121.5380855
1242,自行車竊盜,2018-05-23,06,08,臺北市北投區榮光里石牌路1段181~210號,25.114971,121.5145744
1243,自行車竊盜,2018-05-23,16,18,臺北市大安區學府里長興街31~60號,25.0168137,121.5452052
1244,自行車竊盜,2018-05-23,18,20,臺北市大安區和安里信義路與建國南路口,25.0338421,121.538345
1245,自行車竊盜,2018-05-25,06,08,臺北市信義區三張里松勤街140巷1~30號,25.0319974,121.5646023
1246,自行車竊盜,2018-05-25,16,18,臺北市內湖區內湖路一段217巷旁西康公園前人行道,25.0831329,121.5644339
1247,自行車竊盜,2018-05-25,22,24,臺北市士林區聖山里忠誠路1段173巷28弄1~30號,25.1082459,121.5322341
1248,自行車竊盜,2018-05-26,22,24,臺北市中山區圓山捷運站2號,25.0696122,121.5201843
1249,自行車竊盜,2018-05-26,22,24,臺北市中山區圓山捷運站2號,25.0696122,121.5201843
1250,自行車竊盜,2018-05-27,02,04,臺北市中正區永昌里汀州路1段181~210號,25.027027,121.5111958
1251,自行車竊盜,2018-05-27,14,16,臺北市萬華區水源路181~210號,25.0234979,121.5109382
1252,自行車竊盜,2018-05-27,20,22,臺北市北投區吉慶里實踐街61~90號,25.1153574,121.5097836
1253,自行車竊盜,2018-05-29,02,04,臺北市大安區學府里基隆路4段31~60號,25.0128952,121.5394419
1254,自行車竊盜,2018-05-30,06,08,臺北市大安區學府里羅斯福路4段1~30號,25.0173405,121.5397518
1255,自行車竊盜,2018-05-31,02,04,臺北市大安區龍泉里師大路1~30號,25.026164,121.5285658
1256,自行車竊盜,2018-05-31,06,08,臺北市南港區忠孝東路5段961~990號,25.0450834,121.5822848
1257,自行車竊盜,2018-06-01,08,10,臺北市中山區南京東路3段151~180號,25.0522239,121.5416745
1258,自行車竊盜,2018-06-02,10,12,臺北市中正區愛國里愛國西路與博愛路口((小南門捷運站3號,25.0356186,121.5108002
1259,自行車竊盜,2018-06-03,08,10,臺北市北投區石牌里致遠一路1段46巷1~30號,25.1088129,121.5164608
1260,自行車竊盜,2018-06-07,22,24,臺北市大安區古莊里羅斯福路3段17巷1~30號,25.0236133,121.5254772
1261,自行車竊盜,2018-06-08,14,16,臺北市內湖區成功路5段1~30號,25.074132,121.605772
1262,自行車竊盜,2018-06-08,18,20,臺北市萬華區和平西路3段241~270號,25.0353055,121.4959633
1263,自行車竊盜,2018-06-09,22,24,臺北市松山區八德路3段199巷1弄1~30號,25.0489742,121.5569662
1264,自行車竊盜,2018-06-11,10,12,臺北市北投區溫泉里溫泉路58巷1~30號,25.1341373,121.5040508
1265,自行車竊盜,2018-06-16,00,02,臺北市松山區三民路95巷31~60號,25.0569575,121.5619664
1266,自行車竊盜,2018-06-18,10,12,臺北市中正區幸市里齊東街82巷31~60號,25.042112,121.528203
1267,自行車竊盜,2018-06-19,18,20,臺北市士林區承德里基河路1~30號,25.0822335,121.5240616
1268,自行車竊盜,2018-06-21,10,12,臺北市大安區住安里信義路4段1~30號,25.033623,121.5439372
1269,自行車竊盜,2018-06-21,16,18,臺北市內湖區內湖路1段667巷,25.0800411,121.5757533
1270,自行車竊盜,2018-06-22,14,16,臺北市士林區明勝里承德路4段61~90號,25.0900733,121.5186739
1271,自行車竊盜,2018-06-23,18,20,臺北市大同區安西街91巷1~30號,25.062459,121.510032
1272,自行車竊盜,2018-06-23,22,24,臺北市中山區大直街2巷1~30號,25.0810091,121.5460805
1273,自行車竊盜,2018-06-25,00,02,臺北市中正區頂東里羅斯福路3段84巷1~30號,25.0214209,121.526088
1274,自行車竊盜,2018-06-26,10,12,臺北市萬華區(梧州街與三水街口),25.036731,121.4976133
1275,自行車竊盜,2018-06-26,22,24,臺北市信義區永吉路200巷41弄(口),25.043954,121.572841
1276,自行車竊盜,2018-06-30,04,06,臺北市北投區開明里復興一路31~60號,25.139899,121.502543
1277,自行車竊盜,2018-06-30,08,10,臺北市中正區頂東里汀州路2段301~330號,25.0218532,121.5246245
1278,自行車竊盜,2018-06-30,10,12,臺北市萬華區(西門捷運1號,25.041771,121.507035
1279,自行車竊盜,2018-06-30,12,14,臺北市大安區龍坡里和平東路1段241~270號,25.0259839,121.533406
1280,自行車竊盜,2018-06-30,18,20,臺北市萬華區和平西路3段382巷2弄1~30號,25.0348907,121.4915333
1281,自行車竊盜,2018-06-30,20,22,臺北市內湖區港墘捷運站1號,25.0800546,121.5752003
1282,自行車竊盜,2018-07-01,18,20,臺北市信義區三張里信義路5段(101世貿捷運站2號,25.0330304,121.5627598
1283,自行車竊盜,2018-07-03,08,10,臺北市北投區福興里自強街5巷1~30號,25.1108249,121.5120861
1284,自行車竊盜,2018-07-07,16,18,臺北市大安區學府里羅斯福路4段1~30號,25.0173405,121.5397518
1285,自行車竊盜,2018-07-08,08,10,臺北市中正區螢雪里重慶南路3段151~180號,25.0230019,121.517084
1286,自行車竊盜,2018-07-08,14,16,臺北市萬華區萬大路301~330號,25.024832,121.500587
1287,自行車竊盜,2018-07-09,14,16,臺北市大安區龍圖里復興南路2段61~90號,25.0279362,121.5437345
1288,自行車竊盜,2018-07-10,20,22,臺北市萬華區仁德里西寧南路287巷,25.0388239,121.5064197
1289,自行車竊盜,2018-07-10,22,24,臺北市中正區網溪里22鄰廈門街99巷1~30號,25.0236389,121.519451
1290,自行車竊盜,2018-07-12,14,16,臺北市北投區大同里北投路1段(與育仁路口),25.130273,121.499443
1291,自行車竊盜,2018-07-13,04,06,臺北市中山區林森北路107巷31~60號,25.0501328,121.5261395
1292,自行車竊盜,2018-07-17,16,18,臺北市萬華區東園街1~30號,25.0250098,121.4954721
1293,自行車竊盜,2018-07-20,00,02,臺北市大安區永康里信義路與麗水街口,25.030153,121.528861
1294,自行車竊盜,2018-07-21,16,18,臺北市萬華區西園路1段121~150號,25.0379385,121.4998008
1295,自行車竊盜,2018-07-22,04,06,臺北市大同區市民大道1段91~120號,25.0447598,121.537509
1296,自行車竊盜,2018-07-22,14,16,臺北市萬華區富福里大理街42~6號,25.0342819,121.5000913
1297,自行車竊盜,2018-07-22,18,20,臺北市中山區新生北路2段31~60號,25.0542013,121.5278274
1298,自行車竊盜,2018-07-28,10,12,臺北市內湖區內湖路2段103巷61~90號,25.0806095,121.58195
1299,自行車竊盜,2018-07-29,06,08,臺北市中正區幸福里忠孝東路1巷61~90號,25.0455047,121.521878
1300,自行車竊盜,2018-07-29,20,22,臺北市信義區三犁里信義路5段(象山捷運站2號,25.0330304,121.5627598
1301,自行車竊盜,2018-07-30,06,08,臺北市士林區德華里福國路91~120號,25.101977,121.524891
1302,自行車竊盜,2018-08-01,08,10,臺北市南港區南港里興東街10巷1~30號,25.0562099,121.611213
1303,自行車竊盜,2018-08-01,14,16,臺北市內湖區法務部行政執行署士林分署腳踏車棚內,25.0726156,121.6073438
1304,自行車竊盜,2018-08-03,08,10,臺北市文山區萬隆里羅斯福路5段236巷1~30號,25.00134,121.538301
1305,自行車竊盜,2018-08-03,12,14,臺北市大安區通安里信義路4段241~270號,25.0334151,121.5535567
1306,自行車竊盜,2018-08-04,14,16,臺北市中正區黎明里市民大道1段(捷運臺北車站M2出口附近),25.04625,121.51753
1307,自行車竊盜,2018-08-04,20,22,臺北市大安區民輝里新生南路1段97巷1~30號,25.0412781,121.5339146
1308,自行車竊盜,2018-08-05,14,16,臺北市北投區福興里石牌路1段61~90號,25.1124156,121.5149198
1309,自行車竊盜,2018-08-08,22,24,臺北市松山區南京東路5段291巷31~60號,25.0529259,121.5661741
1310,自行車竊盜,2018-08-11,14,16,臺北市大安區學府里羅斯福路4段1~30號,25.0173405,121.5397518
1311,自行車竊盜,2018-08-12,18,20,臺北市南港區市民大道8段361~390號,25.0529845,121.607317
1312,自行車竊盜,2018-08-13,02,04,臺北市大安區光武里忠孝東路4段61~90號,25.0418045,121.5459871
1313,自行車竊盜,2018-08-15,00,02,臺北市萬華區艋舺大路1~30號,25.0262857,121.4970294
1314,自行車竊盜,2018-08-17,06,08,臺北市大同區安西街61~90號,25.0612084,121.5098408
1315,自行車竊盜,2018-08-17,22,24,臺北市南港區中研里研究院路2段61~90號,25.0446255,121.6160457
1316,自行車竊盜,2018-08-20,02,04,臺北市文山區萬有里興隆路1段181~210號,25.0010539,121.5430019
1317,自行車竊盜,2018-08-20,20,22,臺北市大安區車層里仁愛路4段345巷4弄31~60號,25.0390911,121.5520892
1318,自行車竊盜,2018-08-21,08,10,臺北市大安區昌隆里市民大道3段217巷2弄1~30號,25.0448573,121.5429701
1319,自行車竊盜,2018-08-22,04,06,臺北市大安區仁慈里復興南路1段271~300號,25.0357947,121.5438468
1320,自行車竊盜,2018-08-23,22,24,臺北市中山區復興北路361~390號,25.0604073,121.5443925
1321,自行車竊盜,2018-08-25,16,18,臺北市中正區河堤里汀州路2段211~240號,25.0236187,121.5226106
1322,自行車竊盜,2018-08-31,00,02,臺北市中正區林興里羅斯福路3段121~150號,25.0221362,121.5269189
1323,自行車竊盜,2018-09-01,06,08,臺北市中山區中山北路2段77巷1~30號,25.057448,121.5234412
1324,自行車竊盜,2018-09-02,02,04,臺北市大安區龍圖里信義路3段91~120號,25.033877,121.533515
1325,自行車竊盜,2018-09-03,04,06,臺北市大安區古莊里和平東路1段50巷,25.0266443,121.5238117
1326,自行車竊盜,2018-09-03,10,12,臺北市中正區愛國里中華路2段31~60號,25.0360166,121.5066003
1327,自行車竊盜,2018-09-04,10,12,臺北市信義區永吉里松山路121~150號,25.047384,121.578035
1328,自行車竊盜,2018-09-04,16,18,臺北市大安區芳和里和平東路3段151~180號,25.0248484,121.5527662
1329,自行車竊盜,2018-09-04,18,20,臺北市大安區敦安里信義路4段199巷,25.0342824,121.5516355
1330,自行車竊盜,2018-09-08,12,14,臺北市內湖區文德路211~240號,25.0787994,121.5867284
1331,自行車竊盜,2018-09-10,08,10,臺北市北投區振華里東華街1段361~390號,25.1096115,121.5191835
1332,自行車竊盜,2018-09-11,12,14,臺北市大安區虎嘯里基隆路2段181~210號,25.0282622,121.5569803
1333,自行車竊盜,2018-09-13,08,10,臺北市文山區萬隆里羅斯福路5段211~240號,25.007887,121.538523
1334,自行車竊盜,2018-09-14,16,18,臺北市大同區臺北地下街Y9,25.0495017,121.5136386
1335,自行車竊盜,2018-09-15,08,10,臺北市中山區龍江路318巷1~30號,25.0648503,121.5407201
1336,自行車竊盜,2018-09-15,12,14,臺北市信義區永吉里永吉路517巷1弄1~30號,25.045846,121.579676
1337,自行車竊盜,2018-09-17,12,14,臺北市大安區黎孝里和平東路3段241~270號,25.022955,121.5543625
1338,自行車竊盜,2018-09-19,22,24,臺北市大同區錦西街65巷1~30號,25.059907,121.515676
1339,自行車竊盜,2018-09-20,16,18,臺北市士林區明勝里基河路1~30號,25.0822335,121.5240616
1340,自行車竊盜,2018-09-21,08,10,臺北市大安區龍門里建國南路2段241~270號,25.0254926,121.5379898
1341,自行車竊盜,2018-09-21,14,16,臺北市大同區歸綏街61~90號,25.0593634,121.517686
1342,自行車竊盜,2018-09-21,16,18,臺北市北投區榮華里富貴一路35巷1~30號,25.1152144,121.5245091
1343,自行車竊盜,2018-09-22,10,12,臺北市北投區東華里致遠三路50巷1~30號,25.1205011,121.5120183
1344,自行車竊盜,2018-09-23,08,10,臺北市中正區頂東里師大路121~150號,25.022044,121.528399
1345,自行車竊盜,2018-09-23,14,16,臺北市松山區敦化北路331~360號,25.059274,121.550263
1346,自行車竊盜,2018-09-24,22,24,臺北市大安區黎和里和平東路3段391~420號,25.0196996,121.5575849
1347,自行車竊盜,2018-09-28,14,16,臺北市文山區景行里景中街30巷(景行公園旁),24.9925555,121.5429866
1348,自行車竊盜,2018-09-29,08,10,臺北市松山區八德路4段691~720號,25.0502003,121.5764848
1349,自行車竊盜,2018-10-02,10,12,臺北市中正區林興里辛亥路1段43巷(口(台電大樓捷運站1號,25.02072,121.52817
1350,自行車竊盜,2018-10-02,18,20,臺北市大安區光武里大安路1段31巷1~30號,25.0441415,121.5463717
1351,自行車竊盜,2018-10-02,22,24,臺北市中山區民生西路45巷9弄1~30號,25.0591145,121.5209727
1352,自行車竊盜,2018-10-02,22,24,臺北市中山區民生西路45巷9弄1~30號,25.0591145,121.5209727
1353,自行車竊盜,2018-10-06,16,18,臺北市大安區群英里和平東路3段1巷72弄1~30號,25.0278251,121.5465381
1354,自行車竊盜,2018-10-06,16,18,臺北市中山區長春路151~180號,25.0550215,121.533379
1355,自行車竊盜,2018-10-09,16,18,臺北市中正區中山南路與常德街口,25.0407391,121.5189863
1356,自行車竊盜,2018-10-11,12,14,臺北市北投區石牌里明德路91~120號,25.1090387,121.5188432
1357,自行車竊盜,2018-10-14,10,12,臺北市中山區新生北路3段1~30號,25.0654106,121.5272432
1358,自行車竊盜,2018-10-15,10,12,臺北市中正區紹興北街31巷15弄1~30號,25.0450576,121.525872
1359,自行車竊盜,2018-10-18,12,14,臺北市中山區長春路151~180號,25.0550215,121.533379
1360,自行車竊盜,2018-10-18,22,24,臺北市大安區義安里敦化南路2段91~120號,25.0236951,121.5483374
1361,自行車竊盜,2018-10-19,00,02,臺北市士林區明勝里承德路4段3巷1~30號,25.0789932,121.5217787
1362,自行車竊盜,2018-10-19,22,24,臺北市大安區住安里信義路4段1~30號,25.033623,121.5439372
1363,自行車竊盜,2018-10-20,08,10,臺北市萬華區成都路91~120號,25.043183,121.504661
1364,自行車竊盜,2018-10-20,14,16,臺北市文山區景華里景中街1~30號,24.9931703,121.5415355
1365,自行車竊盜,2018-10-21,14,16,臺北市士林區義信里中山北路5段61~90號,25.0836168,121.5255946
1366,自行車竊盜,2018-10-24,00,02,臺北市南港區中南里忠孝東路7段571~600號,25.0531174,121.6141292
1367,自行車竊盜,2018-10-24,12,14,臺北市中山區長安東路2段211~240號,25.0482502,121.5443468
1368,自行車竊盜,2018-10-25,04,06,臺北市信義區市民大道6段271~300號,25.0492569,121.5799811
1369,自行車竊盜,2018-10-26,12,14,臺北市北投區八仙里西安街2段361~390號,25.1209658,121.5042591
1370,自行車竊盜,2018-10-26,16,18,臺北市信義區五常里永吉路181~210號,25.045853,121.571964
1371,自行車竊盜,2018-10-26,18,20,臺北市大安區正聲里光復南路308巷31~60號,25.0387783,121.5562059
1372,自行車竊盜,2018-10-27,12,14,臺北市萬華區大理街31~60號,25.0346823,121.5020786
1373,自行車竊盜,2018-10-27,14,16,臺北市中正區文祥里金山南路1段121~150號,25.0360636,121.5278554
1374,自行車竊盜,2018-10-28,14,16,臺北市中山區建國北路2段121~150號,25.059672,121.537462
1375,自行車竊盜,2018-10-28,18,20,臺北市南港區三重里重陽路451~480號,25.0594639,121.61015
1376,自行車竊盜,2018-10-28,22,24,臺北市中山區建國北路2段31~60號,25.0547495,121.5370927
1377,自行車竊盜,2018-10-29,16,18,臺北市南港區九如里研究院路2段151~180號,25.0379499,121.6171171
1378,自行車竊盜,2018-10-30,14,16,臺北市北投區大同里大業路481~510號,25.1326859,121.4956426
1379,自行車竊盜,2018-11-01,12,14,臺北市大安區臥龍里復興南路2段301~330號,25.0279362,121.5437345
1380,自行車竊盜,2018-11-01,16,18,臺北市南港區三重里新民街25巷1~30號,25.0559634,121.6130853
1381,自行車竊盜,2018-11-05,14,16,臺北市信義區松隆路123巷1~30號,25.0473429,121.5715799
1382,自行車竊盜,2018-11-06,16,18,臺北市中正區文盛里羅斯福路3段241~270號,25.0193809,121.52993
1383,自行車竊盜,2018-11-07,08,10,臺北市大安區錦華里潮州街78巷1~30號,25.0289027,121.5243369
1384,自行車竊盜,2018-11-08,10,12,臺北市大安區龍圖里復興南路2段1~30號,25.0279362,121.5437345
1385,自行車竊盜,2018-11-09,16,18,臺北市萬華區西園路2段211~240號,25.0293413,121.4957544
1386,自行車竊盜,2018-11-09,20,22,臺北市信義區黎順里崇德街121巷1~30號,25.0244958,121.5565893
1387,自行車竊盜,2018-11-09,22,24,臺北市北投區長安里中央北路1段61~90號,25.1342067,121.5004096
1388,自行車竊盜,2018-11-11,14,16,臺北市萬華區雙園街107巷,25.0324921,121.4925563
1389,自行車竊盜,2018-11-12,10,12,臺北市中正區河堤里金門街44巷1~30號,25.021038,121.522238
1390,自行車竊盜,2018-11-12,10,12,臺北市萬華區桂林路121~150號,25.0385744,121.5003317
1391,自行車竊盜,2018-11-12,18,20,臺北市大安區住安里信義路4段1~30號,25.033623,121.5439372
1392,自行車竊盜,2018-11-12,18,20,臺北市中山區新生北路3段61~90號,25.0659966,121.5280981
1393,自行車竊盜,2018-11-12,20,22,臺北市大安區敦安里安和路1段61~90號,25.0374557,121.5517838
1394,自行車竊盜,2018-11-14,08,10,臺北市大安區古莊里羅斯福路3段91~120號,25.022693,121.526267
1395,自行車竊盜,2018-11-15,10,12,臺北市中山區龍江路331~360號,25.0631408,121.5410123
1396,自行車竊盜,2018-11-15,10,12,臺北市大同區大龍街241~270號,25.0711478,121.5159548
1397,自行車竊盜,2018-11-16,14,16,臺北市中正區三愛里連雲街31~60號,25.0357475,121.5314363
1398,自行車竊盜,2018-11-18,00,02,臺北市中正區幸福里(善導寺站3號,25.0448491,121.5233604
1399,自行車竊盜,2018-11-18,02,04,臺北市大安區全安里安和路2段151~180號,25.0308286,121.5526743
1400,自行車竊盜,2018-11-19,00,02,臺北市士林區臨溪里故宮路1~30號,25.097697,121.5467866
1401,自行車竊盜,2018-11-20,04,06,臺北市中山區林森北路399巷1~30號,25.059267,121.5256771
1402,自行車竊盜,2018-11-24,12,14,臺北市中正區文北里銅山街1~30號,25.0402915,121.5261893
1403,自行車竊盜,2018-11-24,12,14,臺北市北投區中央里大業路300巷31~60號,25.1285244,121.4995304
1404,自行車竊盜,2018-11-25,08,10,臺北市大安區通安里信義路4段241~270號,25.0334151,121.5535567
1405,自行車竊盜,2018-11-25,18,20,臺北市萬華區萬大路486巷59弄1~30號,25.0203937,121.4959257
1406,自行車竊盜,2018-11-28,04,06,臺北市大安區住安里信義路4段1~30號,25.033623,121.5439372
1407,自行車竊盜,2018-12-02,14,16,臺北市內湖區文德路211~240號,25.0787994,121.5867284
1408,自行車竊盜,2018-12-02,16,18,臺北市大安區新龍里建國南路2段123巷,25.0294873,121.5386498
1409,自行車竊盜,2018-12-04,02,04,臺北市中山區新生北路2段68巷31~60號,25.0565319,121.5257015
1410,自行車竊盜,2018-12-05,14,16,臺北市中山區玉門街1~30號,25.0716662,121.5221636
1411,自行車竊盜,2018-12-05,20,22,臺北市士林區明勝里通河街91~120號,25.0806468,121.5219358
1412,自行車竊盜,2018-12-05,20,22,臺北市士林區明勝里通河街91~120號,25.0806468,121.5219358
